AOD,AQI,CO,Latitude,Longitude,PM25,humidity,name,temperature,Place
285.0,25.006842,0.0263113233451171,34.14103764107664,74.59900114828336,15.004105,53.79190112070551,Point_0,14.891578398810507,Baramulla
694.0,15.145497,0.0183030753180322,27.91319702694907,88.30270629783988,9.087298,69.16325939109456,Point_2,-4.829206106397805,Mangan
638.0,27.925234,0.0367024721846797,9.048912894169751,77.75560625316825,16.75514,45.16440998054182,Point_6,33.64944515228274,Chettikurichi
626.0,39.235317,0.0486339288920309,23.15271140095518,94.09487168285412,23.541191,53.515039328740365,Point_7,29.805139054192463,Hnaw Nyaung Pin
285.0,20.48222,0.0262864399701334,34.32037588456741,74.42867153494387,12.289332,51.44457618411534,Point_11,14.150692982143823,Bomai
315.0,21.85473,0.0417300122137542,28.10999998134254,93.65647761951593,13.112839,83.63233462609423,Point_14,16.928769154018823,Kra Daadi
1232.0,80.77721,0.0273873584989588,36.86279842418759,81.18377053649252,48.466324,11.406155694415698,Point_17,21.18980973561605,Xinjiang
1079.0,38.739857,0.0488690311710119,23.620591048589013,90.39307135508446,23.243914,69.89581726691682,Point_18,30.39170046912301,Latabdi
525.0,33.128025,0.0417333733391906,24.707911160713024,80.52199480284855,19.876816,13.684800151295171,Point_19,31.902090009053552,Kandahli
555.0,50.483116,0.0486303282595385,25.679388444759105,95.6972912675844,30.28987,53.46739671710144,Point_21,26.242747561136923,Sagaing Region
277.0,33.142136,0.0346462942659825,24.11891933186284,72.33258662311478,19.885283,21.876034039134627,Point_22,31.32951242658828,Banaskantha
1124.0,62.278683,0.0480825793065937,26.81783850802,85.18091483454745,37.36721,19.556200605531384,Point_25,31.246653811136923,East Champaran
168.0,3.0717022,0.015425110546256,33.462199152435055,83.9378113236376,1.8430214,33.270703118877464,Point_28,-1.7555570178561766,Chabu
359.0,31.704546,0.0355262481607395,24.88407957524711,71.25458381058604,19.022728,16.430142582386452,Point_32,33.04479020436605,Khan
617.0,40.71825,0.0441146874458984,22.988592219224863,84.74612452093294,24.43095,17.01950508409072,Point_33,30.64270415835915,Gumla
283.0,36.39829,0.0372734319253778,26.12878674037855,73.0140342299631,21.838974,15.36267643711039,Point_35,31.89123931460915,Mogra kalan
377.0,29.127083,0.0351484485463316,23.02304939123339,71.63433365836411,17.47625,22.34457610544872,Point_36,33.15641672346328,Surendranagar
524.0,38.536266,0.0466748997327423,18.33404365094017,83.28743243909398,23.12176,58.54742338657806,Point_37,32.88467464447024,Salipeta
217.0,2.8916044,0.0239648407759274,28.968423849426586,92.2951135576893,1.7349626,55.26097479340224,Point_38,-0.623178545633948,Shakjang
611.0,43.882637,0.041421272445611,24.9263396630402,83.11029394818598,26.329582,16.297505075874472,Point_39,31.737118763393823,Chandauli
302.0,31.760489,0.0345835418739712,21.89371188305406,70.1572939774148,19.056293,40.46869049323696,Point_40,30.626780764261923,Rajkot
544.0,29.10986,0.0351695588809994,23.25281062108327,93.76572458361083,17.465916,58.552091913520144,Point_41,21.81760378943551,Lophei
554.0,6.19487,0.0271738824374655,36.019920180466585,69.25958862028436,3.716922,57.46115370500965,Point_42,9.370243220859152,Khwaja Jiran
180.0,7.137204,0.0194292794251788,32.80517413617485,96.47039786307242,4.2823224,70.08740777002119,Point_43,-4.116708819071448,Ratö
667.0,32.513706,0.0366422536714892,17.958354186113112,76.1048213332686,19.508224,13.177143912028678,Point_44,34.53714046478274,Bhatambra
315.0,1.9294274,0.0157260520499748,34.668468238246504,89.60842244580257,1.1576564,63.81429157546656,Point_47,-9.429059622022804,Sewu
311.0,63.99936,0.0378123937270269,27.13028330282004,71.10899243919687,38.399616,16.230684048304965,Point_48,32.563494088914695,Kanod Rawlotan
576.0,36.06882,0.041123269884128,19.202476005504707,78.32654448555118,21.641293,17.13708964940797,Point_51,33.85659847259524,Nirmal
201.0,2.8977587,0.0134563085752486,30.915195592866127,90.25921530286828,1.7386552,53.24465324449788,Point_53,-1.100609101189491,Baingoin County
469.0,45.177555,0.0363838080553895,31.63182040306268,74.67635893634268,27.106533,27.410118560879315,Point_54,28.510705460442463,Nurpur
285.0,18.007412,0.0199731690424996,32.24430878647386,77.106271949447,10.804447,57.71358595931324,Point_56,1.0802312850952376,Kullu
668.0,34.613716,0.0351129433537005,16.39167990311723,75.04145057939162,20.768229,29.38886571687087,Point_57,31.63916411929665,Bagalkote
116.0,3.39033,0.0174688209841818,30.527977154826463,91.05065371587278,2.034198,59.541174431027066,Point_58,-4.166608450147805,Lhasa
444.0,30.144472,0.0396612712143341,24.49811656088161,79.7055092436051,18.086683,14.904635041298231,Point_59,31.39171403249105,Kishangarn
437.0,33.908195,0.0349468856174988,25.68623916704509,71.00293949586171,20.344917,16.415005559605397,Point_60,31.944611167907738,Tamliyar
173.0,3.5933928,0.0174988228827695,29.407654972903703,90.05256103286376,2.1560357,38.522786116446206,Point_61,3.5787800047132805,Lhasa
125.0,4.0155354,0.0175229847697395,31.247621024146035,81.92015902670168,2.4093213,44.19688203038721,Point_63,-6.463836097717262,Gegyai County
308.0,1.8690562,0.0171346023335501,34.537062696776246,88.19402412077959,1.1214337,54.256082022603735,Point_64,-6.380136553446448,Tsodrel Jangma
325.0,16.208027,0.0188629356959547,29.337373965149865,82.98329368381364,9.724816,65.06174634221696,Point_67,-6.294822968376991,Karnali Province
1312.0,54.31529,0.0484804127313486,25.14390942620244,88.26106341620454,32.589172,35.43029008074782,Point_68,29.883928659227195,Maldah
883.0,104.78874,0.026667183891729,36.82293005164517,80.7131092462455,61.436623,13.826198287636084,Point_70,18.82011301252578,Xinjiang
331.0,3.405993,0.0231140758459159,36.00751693502397,71.67685082071178,2.0435958,66.08249887352973,Point_71,-0.8102445178561766,Chitral Tehsil
695.0,35.918365,0.0425309679767826,17.050618244978185,80.13323378516851,21.55102,50.84592498729433,Point_72,34.59851470523415,Pedamandava
513.0,40.884445,0.0464741921359713,26.4665827421826,95.52000419348546,24.530666,76.49479917957507,Point_74,21.169464683532738,Santon Ywar Thit
920.0,56.215202,0.0461973659611381,25.32623626298332,83.68118326689061,33.729122,19.39459924643773,Point_75,31.86255279117165,Ramgarh
267.0,2.1204045,0.0162107374577485,35.56301258744328,88.26720394699987,1.2722427,68.05913325637735,Point_76,-9.518523597717262,Garco
738.0,43.26403,0.0529527219857651,27.531604132643903,86.8030783517724,25.958418,48.84153067627581,Point_78,15.763608021206323,Koshi Province
549.0,22.832428,0.0341243878458491,22.37001181108761,79.14953033807224,13.699457,18.820050660187835,Point_79,29.82723378075497,Jamuniyabhura
1083.0,57.144623,0.0521106157136398,23.551566006058444,88.74203718969451,34.286774,42.17540255372709,Point_80,32.44141021304665,Karpasdanga
287.0,36.12096,0.0394158328844476,27.480329738901204,76.32748530271944,21.672577,17.44426302290082,Point_81,29.77561160193551,Tolawas
413.0,27.069822,0.0285584796609009,32.495647923946635,76.13519281686247,16.241894,46.10980260725514,Point_84,14.592913034227196,Mangla
413.0,15.977041,0.0266189575195368,32.53544013959295,76.37462711544724,9.586225,58.5357526117523,Point_85,8.315203073289695,Chamba
243.0,6.014432,0.0361067419972422,29.3730355718113,95.2115337839427,3.6086593,78.53297883492895,Point_86,8.498417048984152,Dezhing Township
325.0,9.491988,0.0184843108914941,29.81197384721945,82.63955491194801,5.695193,70.35595135249481,Point_90,-7.173281627231177,Karnali Province
695.0,42.214725,0.0426169411294069,17.39604174910864,79.34026076910737,25.328835,38.002809115220565,Point_91,34.480920304192466,Addagudur
459.0,30.859896,0.0378726197033679,23.79656964060875,77.66974103887836,18.515938,15.59523064956457,Point_97,31.449005699157738,Imaliya Jagir
492.0,55.17809,0.0390885135241157,31.05157844931558,72.40981424886239,33.106853,24.054310888564537,Point_99,29.28874094221328,Punjab
434.0,9.637469,0.0165546296369201,36.34435748583102,83.83071128093776,5.7824817,67.14390178479528,Point_101,-8.871591631571448,Xinjiang
731.0,50.879066,0.043196840107958,24.947950214223784,85.33308278114123,30.527441,19.10985663232535,Point_104,31.923289553324423,Gaya
395.0,1.5284123,0.0202155971886684,36.32973329397045,70.17159775994173,0.91704744,73.87596739186264,Point_106,-3.849741045633948,Takhar Province
554.0,41.3848,0.0508805134450453,19.76158147265355,84.56770834696165,24.83088,55.08003950895486,Point_107,32.38403716617165,Ganjam
654.0,52.653667,0.0469835333375999,20.469744527307164,83.36860144932261,31.592201,26.790557891578555,Point_108,34.64972998301192,Balangir
1108.0,51.744087,0.0502896770391996,23.83688425795152,89.26710004394803,31.046452,44.91993940993467,Point_110,32.08435454898415,Sadaki
735.0,32.773655,0.0392890094121736,12.263693418202593,79.34634817373359,19.664192,45.72636219611865,Point_111,34.06377891964382,Alampoondi
477.0,28.75514,0.0383905783295662,22.438722863184065,76.5455009998445,17.253084,17.09510890416695,Point_112,32.73117800818551,Surmanya
1137.0,49.40053,0.0445138529519366,25.41350022450356,87.45452729709194,29.64032,31.534842652454792,Point_113,30.24802371131051,Katihar
695.0,32.35246,0.0408083948328662,17.511364637146258,80.67752216693742,19.411476,52.68377103230912,Point_114,34.17328955332442,Bhadradri Kothagudem
646.0,38.874466,0.0412428241735063,20.663269583082467,80.14211861819325,23.324678,16.437122081310893,Point_115,34.78220339881051,Khedegaon
651.0,41.513226,0.0420970787715399,19.037210237168523,77.98008271378106,24.907936,19.21341312639168,Point_118,33.84573421478274,Kumsari
453.0,14.30988,0.038306690089132,27.98735729166297,96.78385637636872,8.585928,77.93123730969562,Point_120,10.016537708706323,Hawai
1270.0,53.823757,0.0464776232838899,24.64871012274784,89.30259989521213,32.294254,48.9527119316153,Point_122,29.654436471727195,Nandigram
644.0,31.543045,0.0366154453907389,30.74243374228344,77.38062187083125,18.925827,34.23457974878544,Point_125,21.171661949157738,Nohradhar
67.0,5.2133484,0.0153066245855417,29.81100164025073,85.48797534623596,3.128009,39.9018456613983,Point_131,-6.56013601091172,Saga County
475.0,29.004208,0.0465916283428532,27.83879145881619,93.88187784144236,17.402525,85.93094858733474,Point_132,17.685632218254966,Gangte
366.0,4.5380774,0.0210258946753987,34.792368560598256,68.04263699717411,2.7228465,75.48805737273983,Point_134,3.5589910507202376,Ghulami (Eraq sufla -2)
735.0,58.07848,0.0522024631500341,23.670462233870715,96.15674591727308,34.847088,49.87759050822083,Point_135,30.471507326761923,Maung Kon
272.0,35.10301,0.0291332888333431,30.12558816665928,69.81787559821733,21.061806,20.84925502966897,Point_137,24.63114816877578,Loralai Division
430.0,50.746964,0.0378341798981005,30.80680341894952,74.13917728871091,30.448177,26.58865118801541,Point_138,28.84605973561605,Sham Kot Kohna
259.0,3.8363087,0.0168867465108587,32.72675699700979,93.615158499562,2.3017852,75.36346970143666,Point_139,-8.043941349453348,Gangchen
488.0,34.42467,0.0460049936699071,14.596817886007669,79.50335174958734,20.654802,36.90928143520904,Point_140,36.73813601599801,Natarajupalem
611.0,47.107426,0.0426606968419671,24.78046723805563,83.87675628973719,28.264456,18.47656689872721,Point_141,30.981883303324423,Rohtas
592.0,45.64258,0.0445790899296624,16.18155923678875,77.50660109264187,27.385548,18.85587661555765,Point_142,35.42706016964382,Sulthanpur
444.0,31.133648,0.0403395288923976,24.03038709386561,79.78773476450567,18.68019,14.061481252663611,Point_143,32.02524539099801,Damoh
508.0,30.66055,0.0435744054238049,23.701369541087505,92.26434924205545,18.39633,80.11265015582025,Point_144,26.272776858011923,Rangamati Hill District
277.0,42.59507,0.0287054375625205,27.103653953830488,89.41017787226457,25.557041,65.47372448407988,Point_147,13.191654353671652,Pangu
574.0,26.876373,0.0389726837866725,23.253729269803227,80.92800582210873,16.125824,14.975723850068,Point_148,31.472117678324423,Dindori
920.0,60.80415,0.0484810908867568,25.95146172627196,83.71597823970004,36.48249,18.963402505584977,Point_150,31.74391401078969,Mau
612.0,44.29194,0.0359330957746987,19.37667549317203,96.49104955857192,26.575163,47.473952527298565,Point_151,29.08005496131051,Nyaung Pin Taung
395.0,2.0854218,0.0166954397593976,36.396687879288045,70.4051718388994,1.2512531,76.52048133307102,Point_154,-5.791242239210305,Badakhshan Province
544.0,29.657608,0.0400795562789296,23.84832313474385,93.518219732716,17.794565,68.49627861675384,Point_156,21.93419450124105,Mauvom
508.0,60.36834,0.0397912534387759,30.14236603251956,72.05362254437802,36.221004,22.959784045639672,Point_157,29.97470828162301,Khanewal Tehsil
489.0,36.40489,0.0358408342316338,22.152869242646496,72.64124412139682,21.842934,28.50672496158144,Point_158,33.107629288567466,Bharuch
707.0,34.61711,0.0421344074718593,20.726411610312283,79.54193283776533,20.770266,19.39343037933008,Point_159,33.45434966617165,Mendhegaon
733.0,31.103354,0.0365149590157879,28.69065669283053,82.93701994259052,18.662012,47.52647808272777,Point_161,10.000736384921652,Lumbini Province
492.0,36.361694,0.0394821674389138,23.48904234980175,83.5979918108963,21.817017,14.30755442963861,Point_162,30.43815500471328,Balrampur
443.0,25.994045,0.0432091427968907,19.43183668499512,95.21032837108548,15.596427,46.59713011930398,Point_164,32.90478911929665,Gway Kone
716.0,37.264576,0.0393660592003611,11.178678953909191,77.94943301148683,22.358746,38.821438052654415,Point_166,34.46746544308132,Kabilakkurichi
638.0,29.104052,0.0357126958668252,9.561558443739942,77.79493169402811,17.462431,42.454429856149964,Point_168,34.08731136322024,Virudhunagar
643.0,56.295357,0.0467599183321065,24.18558470432408,94.86540264668632,33.777214,49.42142940787065,Point_171,29.16455474429665,Par Kwe
489.0,36.032555,0.0352559021363598,31.39096534896953,71.52600261985904,21.619534,22.786369324706897,Point_172,29.210887209574423,Mianwali Division
601.0,26.68713,0.0434307637133727,15.990179517575388,80.45221694772248,16.012278,63.98427987900417,Point_174,33.29144005245632,Returu
315.0,2.1527557,0.0147675967263567,34.18781100832265,85.88229477012635,1.2916535,47.64344059080063,Point_175,-7.5497600343492195,Chabu
694.0,38.635433,0.0262649515706898,27.459006285958008,88.83377232421012,23.18126,67.8311318227779,Point_176,2.150882869296652,Tibet
621.0,42.178844,0.0362815813980661,26.692287598221448,69.09579589845052,25.307306,18.911219567908336,Point_177,32.92227230072024,Sukkur Division
327.0,27.604422,0.0360893507798408,27.157007925161583,90.93935203478492,16.562653,77.80222659920464,Point_178,13.128788142734152,Bardo
203.0,2.7530239,0.0142183881252943,32.74997835823433,89.82137000553874,1.6518143,43.54908285493847,Point_179,-4.033823076883948,Barling
716.0,43.92968,0.041718279011543,11.670682650059788,77.7707608051407,26.357807,41.78712011167083,Point_183,33.242639054192466,Salem
390.0,36.161533,0.0319797439271592,22.27800925160166,69.37510473704724,21.69692,60.749100739510986,Point_184,29.576108021206323,Devbhumi Dwaraka
307.0,17.18962,0.0248132976067446,32.797019467908015,69.68456605179738,10.313771,60.03921860788902,Point_185,12.762875599331323,Bannu Division
135.0,4.2983475,0.0156448991662712,30.86837929729122,82.07317429476785,2.5790083,51.53153119216445,Point_186,-7.734506670633948,Gegyai County
637.0,30.978369,0.037523159396227,18.379217631410583,75.98312563268095,18.58702,14.363151563569016,Point_189,33.347985733879966,
260.0,23.877464,0.0275543842290774,33.334953106342695,74.56460106724488,14.326478,55.14882960627935,Point_192,18.341516007317463,Rajouri District
768.0,49.180084,0.0466620383515291,21.59456112504333,83.46713805385282,29.50805,19.65630926030593,Point_195,33.938616159227195,Ghugiapali
360.0,21.512453,0.0378672423394079,18.565566781795035,94.59054984894792,12.907472,69.34525213465565,Point_197,27.87145036061605,Rakhine
489.0,29.803404,0.0341352876275809,22.51479185061487,72.12687562776296,17.882042,20.000869278991782,Point_199,34.21848269568551,Surendranagar
209.0,2.8417697,0.016334613164258,32.203929736107355,85.82628564918392,1.7050618,27.00193605504587,Point_200,0.4558009465535519,Aso
762.0,63.213703,0.0396995501227584,29.1227732582577,78.14466872832678,37.928223,22.468112996259936,Point_201,29.74643679724801,Ajdev Khanpur
130.0,1.9628382,0.0156856924295358,33.9317281500966,86.98898259785804,1.1777029,44.98140578292797,Point_205,-4.367563311258948,Rongma
272.0,28.614878,0.0338154397904882,33.051434151504964,71.9932072126388,17.168926,39.6549837969497,Point_206,25.24939361148415,Shah Muhammad Wāli
714.0,37.542618,0.042699308873936,21.97616985707361,82.12768114970436,22.52557,16.13601416672574,Point_207,33.85185129377578,Bilaspur
595.0,43.460857,0.0414602148036075,22.567143317666307,94.55306038507756,26.076515,47.45105788724652,Point_208,29.95561105940078,Sagaing Region
731.0,42.289627,0.0433006652021097,24.50869737181253,85.02601020098867,25.373775,16.597961261368607,Point_209,32.26670046912301,Gaya
524.0,37.64192,0.0459656283195271,18.43728394135414,83.56043187776095,22.585152,60.58943733693384,Point_213,32.97892648908828,Perumali
1046.0,27.385988,0.0462732646474633,22.08737815717961,89.05915630688071,16.431593,65.31739236451727,Point_214,32.09459489186605,Satkhira District
306.0,36.569916,0.0387855536987811,26.70034943568379,76.66814123465508,21.94195,15.488764421807272,Point_218,31.03830691443551,Nadoti
832.0,38.43325,0.0391805957087207,25.27104504394229,91.71699417738404,23.05995,84.21184695778047,Point_219,21.12947987450497,Sohra (Cherrapunji)
243.0,3.527563,0.0360288711191242,29.80868298437677,95.11569999171054,2.1165378,81.17933413845056,Point_221,4.101742786831323,Lunang
1137.0,49.288128,0.0441989425235303,25.66960077706917,87.62157852182294,29.572876,28.714845297047,Point_223,30.48739003075497,Katihar
328.0,24.322695,0.0296297455440618,31.114714366240776,77.18655125127789,14.5936165,45.64420974951655,Point_224,16.95774050818551,Shimla
369.0,2.912156,0.0172240678221105,36.2248321107181,78.52173563071312,1.7472937,60.42378217544142,Point_225,-5.77607839372422,Hekang County
223.0,2.1050777,0.0157250239816245,32.64415734753088,87.84537057013824,1.2630466,43.9774372227644,Point_227,-4.703514374626991,Tsodrel Jangma
641.0,36.4135,0.0408732946962016,21.05975356762424,96.3454693814083,21.8481,46.68388261019928,Point_228,29.55527468787301,Shan State
125.0,4.042947,0.0175136195688648,31.88749506767605,81.78451375859677,2.4257681,27.50232198094741,Point_230,-1.0434259414672624,Gegyai County
1108.0,40.014946,0.047006752328779,23.329801454035,89.96592083889959,24.008966,62.0049874430182,Point_231,31.45862212710915,Faridpur District
634.0,37.21849,0.0401220966710452,19.001132441351057,82.7995862112012,22.331095,43.069925388610855,Point_234,30.303945477803552,Koraput
803.0,56.84295,0.0427007004618647,27.945332356254365,80.49501006534945,34.10577,20.85701609551467,Point_235,30.52329226599801,Sikandarabad
920.0,56.215202,0.0445715580135717,25.18778939460708,83.42116847016632,33.729122,17.503179075647477,Point_236,32.194543351067466,Kaimur
1193.0,52.555584,0.0502081758724735,24.78390818897953,88.14316752238732,31.53335,33.80357319542371,Point_238,30.47526437971328,Sonamasjid
475.0,4.7741637,0.0195155851167855,30.825508113226658,80.47114847502188,2.8644981,51.07855426712409,Point_240,-3.3604561063978053,Tsamda County
430.0,22.461037,0.0384161509573542,13.150143933708518,93.0359174662082,13.476623,69.79357908175872,Point_241,30.07145578596328,North and Middle Andaman
471.0,32.90887,0.0406250304255992,18.08780668261705,81.19842643162372,19.745323,49.776344340520346,Point_242,34.018694284227195,Sukma
497.0,34.3223,0.0360871106284913,21.465167960915075,75.08246698656991,20.59338,19.7674103622952,Point_243,32.549944284227195,Jamnyapada
503.0,44.423096,0.044564386643352,16.067353892840746,78.1190232176717,26.653856,23.48732631254205,Point_245,35.751306046379966,Bekkam
218.0,1.882388,0.0219629741550751,31.287119701897623,93.9519575060311,1.1294328,76.49581258750318,Point_246,-7.152163463168677,Biru County
143.0,6.633029,0.0200941416997499,28.513092422705355,86.57302073900036,3.9798174,33.614692556896244,Point_247,1.746694501241052,Tingri County
530.0,45.662277,0.0499709260960587,19.829061732644394,81.1554104291831,27.397367,26.4730781687739,Point_248,32.45300689273415,Uttar Bastar Kanker
544.0,39.235317,0.0456956906669829,23.49006841689809,93.99820434675478,23.541191,59.41071555388153,Point_249,27.78720828162301,Chin
128.0,3.660262,0.0218126475811001,31.862484615050025,96.08106731397588,2.1961572,58.06997915577464,Point_253,-0.1705960803561765,Chichu
167.0,12.209129,0.0163841067502902,36.30661356736056,92.44988111270384,7.3254776,30.666134424255898,Point_254,-3.734072642856177,Urt Moron
1187.0,54.087093,0.0430656397614063,25.377809377800435,86.00631746983916,32.452255,26.102202749686697,Point_256,31.000058216518823,Begusarai
248.0,31.787428,0.0341790057718782,33.13891404499969,72.93733140845093,19.072456,45.34421065097764,Point_257,23.273739857143823,Rawalpindi Division
234.0,36.842045,0.0378229942865674,28.48320754550644,74.45653930738557,22.105227,15.55686058432412,Point_260,31.00563276078969,Dhani Suhana
1083.0,54.44575,0.0533593053416436,23.354688878844,88.83093892589045,32.66745,43.98079692290539,Point_261,32.53918853335915,Jhenaidah District
432.0,36.545033,0.0434228542422352,20.76358451987761,93.13213808189782,21.92702,70.38160440997159,Point_262,29.940243763393823,Pyaing Cha
237.0,33.154964,0.0383995212614695,27.93639973080216,73.32550064824,19.892979,13.822556174250622,Point_264,31.59474408891469,Udai Ramsar
239.0,13.052017,0.0265466576888641,33.36467840408949,76.04054942158776,7.83121,67.3522556315861,Point_266,-1.9381470786200337,Kishtwar
296.0,43.5052,0.04024641141304,29.00906999863008,69.94353850551637,26.103119,16.282005880027114,Point_267,31.128164227803552,Dera Ghazi Khan Division
1124.0,62.03708,0.0540147051215021,26.8261354698294,85.44958360576469,37.222248,20.374580821048628,Point_269,31.05650895436605,Madhesh Province
611.0,43.06814,0.0428673260658087,24.490984285732623,84.0010453112364,25.840883,20.72564253103651,Point_270,31.73909901512997,Hussainabad
571.0,40.434612,0.0389375044714796,17.924897559934244,77.51068540625594,24.260767,17.050868765949527,Point_271,33.43332644568551,Bidar
1193.0,59.92452,0.0496253955947031,24.043890718265253,88.11688440827595,35.954712,31.46981713885474,Point_272,32.54093820783828,Gokarna
337.0,19.337336,0.0273370845310056,35.137636642142134,69.34176132469388,11.602402,61.37499543064374,Point_273,10.877689509921652,Golbahar
762.0,34.49457,0.0365581810474156,25.41805819456631,92.47666637434529,20.696743,83.0323750768348,Point_274,21.05640044742165,East Jaintia Hills
477.0,28.105062,0.0363748627241264,22.45317583309341,76.98009122270675,16.863037,20.089298723436418,Point_278,32.05389122433132,Khera
713.0,44.364655,0.0540288186385574,21.88166520155352,85.71440781833051,26.618792,33.453405171144915,Point_280,31.68591704898415,Kendujhar
328.0,12.879099,0.0261321472935381,34.26075633406414,69.24759822251146,7.7274594,58.13606726104118,Point_282,12.631677140129966,Logar Province
827.0,58.70222,0.0549461742242359,23.699773187750967,86.70285236974603,35.221333,21.28056712144477,Point_283,32.773522843254966,Dhanbad
626.0,27.558464,0.0367831712906,21.17240776083256,78.50961335684485,16.535078,18.384739969712424,Point_285,32.36533328162301,Dharti
237.0,34.211384,0.0370490176538021,27.164905522322723,73.8475267858913,20.52683,15.299406655003333,Point_286,30.751183976067463,Nagaur
30.0,4.11188,0.0184604738208488,31.897706079066683,79.29929313043064,2.4671278,45.56837452908313,Point_289,-3.404197968376991,Tsamda County
235.0,37.532276,0.0383811295032479,27.81909857018815,75.11788696056517,22.519365,16.43371449823151,Point_290,29.905507977803552,Yalsar
156.0,4.015764,0.0184543385774423,28.951601260870547,89.402305200964,2.4094584,36.35297969769048,Point_291,2.1349323484632805,Gyantse County
151.0,3.4937136,0.0219335630536126,31.702800253170054,92.12862458673152,2.0962281,56.00849538835197,Point_293,-2.131045299106177,Nagqu
307.0,21.59645,0.0281042160116285,32.35789797073528,69.6739365211496,12.9578705,48.88722543646518,Point_294,16.585290421379966,Dera Ismail Khan Division
424.0,5.7619605,0.0272675532768959,35.36295013869304,68.29157286707657,3.4571762,68.10648976260828,Point_295,10.358985625373007,Baghlan Province
944.0,51.532642,0.0516272698808958,26.801102724089446,92.08018617076748,30.919586,52.840322772826575,Point_300,25.788754505581323,Udalguri
576.0,33.070705,0.0411132968499762,19.97475678733668,78.5650382562578,19.842422,15.777877230042431,Point_301,34.26976579030355,Chalbardi
617.0,50.44931,0.0462855457864698,22.536207714420044,84.85915925910948,30.269587,18.69797173062758,Point_303,32.59768733978274,Simdega
523.0,37.993828,0.0381597400730003,29.060302847908204,73.97938638766456,22.796297,19.421416641509424,Point_305,30.293393177456323,Daidaspura
1046.0,38.78666,0.0546390323882386,21.67717566577224,87.15409011902378,23.271996,62.74178937206912,Point_306,32.15819352467855,Singla
329.0,1.237106,0.0203819034239627,36.784616583173,76.05694542953455,0.74226356,60.17412058746644,Point_308,-5.384490394592262,Dafdar
477.0,31.086254,0.0360506559189081,14.27611427748995,75.86780820914151,18.651752,48.32873889562188,Point_309,29.93705637190078,Kadaranahalli
496.0,32.49192,0.0348688221727824,32.3915662950398,75.63564681188943,19.495153,32.376680388835354,Point_310,25.60239382849801,Kathua
701.0,33.190727,0.0354401459202929,10.20735249645417,77.59741978513685,19.914436,52.93158715971943,Point_314,29.21084651947024,Theni
601.0,43.088753,0.0428974350930992,16.476943176052814,76.95364878989514,25.853252,16.402922400961206,Point_317,35.93808718787301,Devadurga taluk
196.0,1.7717594,0.0212349472477484,35.59286266241242,70.45284387495565,1.0630556,64.44358252703586,Point_318,-7.539926592508948,Nuristan Province
289.0,33.341972,0.0379949182550929,26.00081847522328,75.45871615188031,20.005184,13.36211549247085,Point_319,31.840959909227195,Surajpura
647.0,43.36018,0.0465137215064358,20.34263068079528,84.15706011148777,26.016108,33.26163747619651,Point_321,31.97350114186605,Kandhamal
693.0,40.701286,0.0417786402748899,20.211563942774784,81.3257832860231,24.420773,23.00447850622607,Point_323,32.47455908457442,Uttar Bastar Kanker
633.0,39.08078,0.0414452406459929,22.654277161042952,83.49108735239078,23.44847,17.403177125911675,Point_326,31.095910538567463,Jashpur
218.0,34.480755,0.0378443977231955,27.9876533749524,74.04902592957919,20.688454,14.278010110571996,Point_328,31.00822336408828,Bana
457.0,28.967995,0.0358550142297664,23.53497434830761,75.23596506549947,17.380796,15.870148301516943,Point_329,31.615224774678552,Sesla Khedi
652.0,56.13311,0.0459127811319751,23.270636795763338,95.77599684944464,33.679867,52.65120554679608,Point_330,29.649621476067463,Sagaing Region
478.0,30.356394,0.0366290406820472,22.284514765059384,75.28287550589543,18.213837,16.1287437227596,Point_331,32.86222727033828,Dhar
651.0,37.370502,0.0393872499723193,19.344876226166097,77.23827032078688,22.422302,15.62656854316733,Point_333,34.36754411061605,Kinhola
93.0,10.998997,0.0229759011346983,29.518048006521784,83.08558090607764,6.599398,66.35307552565159,Point_335,-4.233177460564491,Karnali Province
630.0,25.697815,0.0363818147658562,10.339824992518253,78.95989661435442,15.418689,60.10185449704299,Point_337,32.62400027381051,Kuppagudi
143.0,6.633029,0.0217710709536908,28.5262815469544,86.22200802450685,3.9798174,43.19614648086998,Point_339,-3.015878740946448,Menpu
1083.0,54.44575,0.0522370682531645,23.246812391005164,88.69680852100309,32.66745,45.69220682520109,Point_340,32.70099951426192,Duttapulia More
254.0,27.3037,0.0283649789873783,33.79944126849557,73.67755460129504,16.38222,55.655180560683135,Point_342,17.480282825893823,Poonch Division
1099.0,30.391565,0.0496267806005074,21.709300991515093,88.42653767712964,18.23494,77.64220145049548,Point_344,30.978953615824423,South 24 Parganas
489.0,30.547577,0.0372199378907459,22.22791914243433,72.3099368319952,18.328547,33.47690231249593,Point_345,32.854875924852195,
513.0,45.231724,0.0469741115265489,26.31668906027669,95.76394670788562,27.139034,67.91823695697188,Point_347,22.80326730940078,Sagaing Region
244.0,31.191956,0.0343787048167759,33.12089885097958,70.82528446124546,18.715174,52.11952413377803,Point_349,23.27505550384524,Kohat Division
690.0,31.47041,0.0397710007503539,20.46399309324468,78.17393897025192,18.882246,15.443399316132105,Point_350,34.22492529551192,Panchgavhan
691.0,27.829838,0.0394393822531039,21.678055897512948,80.96517241035482,16.697903,15.055605253643526,Point_351,33.08364925384524,Khairagarh-Chhuikhadan-Gandai
443.0,25.994045,0.044995310895368,19.34127956551032,95.33599966434524,15.596427,46.854501906524,Point_352,32.83861344655355,
320.0,2.8633015,0.0187223108796301,34.5552884339388,75.41818976826231,1.7179809,79.28232431380837,Point_353,-8.518360837300577,Baltistan Division
764.0,29.876432,0.0434206646094987,16.744926167572846,80.63821020979579,17.92586,56.186034961391215,Point_354,34.111535538567466,Kuntamukkala
899.0,55.036137,0.0456188368771346,25.93489325642928,82.54171747241881,33.021683,16.23544075014384,Point_355,32.32989220089382,Jaunpur
296.0,28.089867,0.0338298219512756,29.28203927885705,69.25888506858821,16.85392,16.455046088522394,Point_357,27.01523562537301,Sibi Division
237.0,37.72745,0.0357486503999093,27.1360317962768,73.07700927600514,22.63647,13.792482364268196,Point_358,31.470395130581323,Karnoo
400.0,31.04619,0.0379766965368095,32.19428086557099,71.90819089939475,18.627714,28.323125792482383,Point_359,27.78745242224801,Sargodha Division
452.0,19.984694,0.0295458139909509,30.811247315193405,68.96612512566413,11.990816,31.69123277735681,Point_362,19.857480091518823,Zhob Division
778.0,18.109068,0.0221278578974293,36.24372107701912,95.7012961276236,10.86544,31.056503170243904,Point_363,2.9336112764146947,Dagur
180.0,6.600786,0.0180691790823639,32.85776551048576,96.59941941795783,3.9604719,74.43840750297315,Point_364,-5.327931149800577,Ratö
452.0,40.652836,0.0420518964695575,15.050125410484153,78.7242477274597,24.3917,25.498644230173205,Point_365,36.219323624504966,Nandyal
1079.0,32.427597,0.0453222629480048,23.114327598752567,90.34085187546356,19.456558,69.53458865224039,Point_366,30.710480308532738,Madaripur District
475.0,50.80867,0.033977091312382,27.47561580110409,93.96917590356038,30.485203,86.53645352341117,Point_371,14.965770022074423,Papum Pare
694.0,15.145497,0.0250777034089017,27.567169184736525,88.20267520867682,9.087298,65.22929492263809,Point_377,-3.1850275039672624,Gyalshing
668.0,34.473312,0.039553096609394,12.600159840538613,75.54973061356606,20.683989,68.54381315609633,Point_378,27.82629790835915,Gutthigar
643.0,32.782097,0.0376679581074672,19.89527105360249,76.59962940882049,19.669258,16.299809094144155,Point_379,33.388323190477195,Shivani Jat
639.0,37.294025,0.0367492943317263,18.62253882221375,76.8122479017756,22.376415,15.188083351471304,Point_381,33.46947282155355,Zari Bk
320.0,2.8633015,0.0180243675907512,34.38137803155213,75.73293360688126,1.7179809,80.14983449929699,Point_382,-9.045840220981177,Dras
272.0,29.843744,0.0381155052126138,25.66984380428403,77.42638993036519,17.906246,13.940255959505768,Point_386,31.036191029018823,Pohari
636.0,60.451298,0.0494816070422424,24.126921833774595,96.24788859854996,36.27078,57.81202821332516,Point_387,28.14283979203969,Pein Hne Chaung
591.0,52.253296,0.0226197323566491,36.79951664345538,79.27167436585283,31.351976,27.539444525963187,Point_391,11.533559735616052,Qaraqash County
695.0,37.364166,0.0385857742045905,27.791656973730817,69.82925735192937,22.4185,19.520186867181543,Point_392,31.563955243428552,Sukkur Division
134.0,3.1989682,0.0157646368940137,29.892068117696027,89.50314059854557,1.9193809,46.023597883344,Point_394,-4.144934187995034,Lhabupu
203.0,10.562303,0.0213188536985474,30.060322010142347,81.10752877944961,6.3373814,70.56942195897477,Point_395,-6.048091740078348,Purang
210.0,7.1638107,0.0170093101582291,34.751770680431726,93.90026931054452,4.2982864,58.85435668307347,Point_398,-3.5085138320922624,Qinghai
452.0,21.634449,0.0296694701565736,30.412194724964223,68.67847088937225,12.980669,27.626993339141915,Point_400,21.15641672346328,Loralai Division
452.0,41.091473,0.0418773063110021,15.9594940558294,78.42597610767191,24.654884,25.59490477633643,Point_401,35.81638308631051,Musalimadugu
570.0,34.254143,0.0440431678845166,16.578469205970052,79.48290399211933,20.552486,46.12708763300543,Point_402,35.19383805592855,Palnadu
943.0,52.498055,0.0412823634785214,28.02296956343168,80.73255114627071,31.498833,22.137442270803152,Point_404,30.48641346825497,Lakhimpur
369.0,4.561102,0.0147590616912268,36.75549376134,78.03620174465918,2.7366612,62.84855121839615,Point_405,-4.423430824279762,Xinjiang
1041.0,54.424694,0.044895187122358,27.633177346204445,81.48383720876055,32.654816,22.37920510164888,Point_406,30.63840457068551,Bahraich
695.0,41.0699,0.0395986003063453,27.239235163440625,69.7210472019437,24.64194,17.360205158065924,Point_407,32.82251372867165,Jaisalmer
1077.0,56.71531,0.0412875588370585,27.32943468542555,83.3053072198815,34.029186,18.824740413159628,Point_409,31.660472170511923,Mahrajganj
296.0,28.089867,0.0325849413250901,29.368870554482665,69.17314606778199,16.85392,16.672793000967005,Point_410,26.67441531287301,Sibi Division
1200.0,42.918644,0.0469774204822188,24.985312465762952,90.97687414652884,25.751186,73.69020653569248,Point_411,26.82853586408828,Sunamganj District
360.0,19.81205,0.0394516218877011,18.079898071596755,94.64093061713332,11.88723,71.20458572471341,Point_414,28.43907731374105,Rakhine
512.0,30.794588,0.0364248003491236,21.379546214419257,76.25298245918654,18.476753,16.56645034432934,Point_415,33.706804635789695,Nimbola
267.0,2.3198266,0.0156231207140958,35.611278042943326,88.48442756437596,1.3918959,67.26213889394495,Point_417,-9.430470212300577,Garco
552.0,30.652164,0.0429559871554183,22.96862192496655,92.55562606902328,18.391298,76.15983305069712,Point_419,26.890167808532738,Lunglei
135.0,7.930132,0.0208254195570326,30.305211839082467,82.4488491053692,4.758079,68.84264416745127,Point_420,-6.427947425842262,Drongpa County
264.0,16.88181,0.0333867832086957,34.13139575101157,70.75203082454574,10.129086,54.57760036511499,Point_422,17.67234011756051,Shinwar
708.0,38.31671,0.0368293075171029,25.938539111429527,69.05705559219479,22.990026,24.84632330577484,Point_423,31.826609865824423,Shaheed Benazirabad Division
1058.0,60.265255,0.0579146173975355,26.54699749895425,90.3462003541417,36.159153,47.47724255981925,Point_425,27.85373660193551,Karigaon
549.0,22.832428,0.0331886585105761,22.37206671325012,78.99997277112826,13.699457,18.49986214418373,Point_426,29.80162614186605,Chhindwara
259.0,3.4104974,0.0177344545128123,32.259749378109206,93.57928748506964,2.0462985,77.34434717460212,Point_428,-7.423756345113077,Marru
90.0,6.4438815,0.0169251817717041,28.3206307730228,91.06587237164769,3.866329,83.09027158479033,Point_433,-5.157643063863077,Shengge
340.0,1.5357642,0.0138034668440594,36.373649547408974,77.17967889085764,0.92145854,56.08360810773135,Point_434,-6.756262312995034,Xinjiang
737.0,68.42155,0.041396066456339,27.375421025762,79.50465161334525,41.05293,18.49348132749138,Point_435,30.79447824690078,Farrukhabad
352.0,36.879356,0.0376222153771324,25.589410096684187,72.4745648491542,22.127615,15.885333344082367,Point_440,31.968645456102195,Ramniya
708.0,79.10661,0.0398179888333944,27.3037066365251,78.56364659454721,47.46397,17.8932824848037,Point_441,30.815135256449423,Firozabad
574.0,26.876373,0.0393009453546888,23.393552257578904,80.71576634891508,16.125824,14.32279111669044,Point_442,31.80607492658828,Umaria
768.0,52.907784,0.0575456090496347,21.822574322470413,83.98846863512395,31.744669,21.058498998115947,Point_443,33.790178659227195,Badmal
522.0,26.336575,0.0447426378561924,18.60165406286977,95.14747723361216,15.801945,54.59954412488588,Point_444,31.955271975199423,Mwe Taw
437.0,31.876087,0.0353343266916277,25.49545859786634,71.15264048477145,19.125652,15.745449775922088,Point_445,32.286584366692466,Sanau
601.0,43.088753,0.0423416209547922,16.493421701888707,76.94425765925467,25.853252,16.486837864171086,Point_446,35.975793351067466,Devadurga taluk
666.0,90.41582,0.0465366411954111,28.754846896593712,77.15612500099806,54.249493,18.11777861530025,Point_447,30.52319732242165,North Delhi
1200.0,39.2781,0.0468019547697693,24.465755096222832,90.99173954509703,23.566858,70.25964875769822,Point_448,28.073232587178552,Kishoreganj District
306.0,36.943012,0.0379038061946602,26.569759693673067,76.01726079327597,22.165808,14.947566111795023,Point_449,30.75450700124105,Garoodwasi
199.0,2.2116745,0.0149808429802433,32.55040674989195,88.2115375388421,1.3270047,42.43995497152735,Point_450,-4.290387747022805,Codrel Lhoma
508.0,28.075666,0.0436741259380146,21.28090032976593,92.25135152500944,16.8454,76.25859902081841,Point_453,29.010190052456323,Tone Chaung
235.0,41.20281,0.0340049334400018,27.103946852112607,75.41790443625663,24.721685,16.540458567642872,Point_456,29.758820152282738,Harsoli
596.0,40.85323,0.0421221330762009,18.903214922437293,80.28519216877898,24.511938,31.75202010165547,Point_457,35.31293799082442,Korla Mal
223.0,2.0354092,0.016428263250748,32.8408037304661,87.00258633680063,1.2212455,37.383836378932976,Point_458,-2.409582625495034,Rongma
372.0,32.58553,0.0365586622425224,23.56964442878562,69.5153699671924,19.551317,33.423363844365696,Point_461,31.514191246032738,Kachchh
626.0,29.069471,0.0378605635838053,21.43738017271429,78.98829165935788,17.441683,18.016430121627927,Point_463,33.152727487352195,Badegaon
235.0,11.320402,0.0284678111280043,34.94194124261411,71.15312352837152,6.7922416,52.23020672520193,Point_464,14.490238338046652,Asadabad
1212.0,50.104992,0.0559005513787019,26.15375640034792,88.5014356314097,30.062996,34.68923378551823,Point_469,29.176788902282738,Thakurgaon District
611.0,36.40489,0.0363932796950522,21.976885741895707,72.69076199744583,21.842934,29.30266314573321,Point_470,33.00518516964382,Bharuch
444.0,29.188942,0.0388628620070584,24.336641497723484,79.20037094520569,17.513365,14.049261326339463,Point_471,31.340959909227195,Sagar
827.0,26.585901,0.0425017012714076,22.41790515800096,91.12349687044562,15.951541,80.02057569020229,Point_472,29.83252349429665,Noakhali District
637.0,34.968685,0.0394820305295701,24.748349252196043,93.64292448400391,20.98121,73.46830936330399,Point_473,22.67489003075497,Charoi Chakoklong
346.0,31.21162,0.0437561390050919,27.39614324139727,91.55880869740623,18.726973,74.59750398439837,Point_474,15.844147300720238,Bainang-Reb Romang
289.0,9.140434,0.0164536597377226,34.40584680510173,96.52379268462728,5.4842606,77.43270666661974,Point_475,-7.932667477925577,Qinghai
524.0,37.64192,0.0474309403110189,18.64230353509689,83.46899399548677,22.585152,55.32290044613538,Point_477,33.31799712710915,Sivarampuram
576.0,55.47404,0.0386639510591738,29.862023302310288,70.71781893857148,33.284424,19.02130019511064,Point_481,30.792050404018823,Kot Chutta
466.0,35.019722,0.0323745135725392,15.855038420262003,74.07020015352198,21.011833,55.15253210954024,Point_482,27.87851687537301,Chavkul
1041.0,54.423874,0.0452592180682958,27.47123617869716,81.30754330840539,32.654324,21.30886574352313,Point_485,30.66847455766469,Sitapur
261.0,3.0064797,0.0157346601287477,33.376364007834,91.90596001623744,1.8038878,59.32281475804268,Point_487,-5.82808034684922,Yanshiping Town
92.0,5.142342,0.0213012785408258,29.126006265712384,87.73599671147096,3.0854053,23.9953644869462,Point_490,5.8140094969007805,Lhatsé
134.0,4.35412,0.0214369046902355,29.31735711513831,89.73888785947152,2.6124718,34.42509214984729,Point_492,2.209585126241052,Jewa
270.0,3.0269992,0.0157046541990531,32.93146595337378,91.7107635997648,1.8161995,62.14763371489382,Point_494,-8.227155325147805,Gangnyi
330.0,2.1414814,0.0149238728918093,33.767465343047505,90.4594974378894,1.2848889,64.96864004635836,Point_495,-8.903858884175577,Sewu
484.0,38.6664,0.0479652136564185,26.37989218529613,96.93985428236518,23.19984,59.51584080100724,Point_496,25.04887277815078,Kachin State
313.0,3.679287,0.041383533828516,28.93034408821181,94.04558395105556,2.2075722,83.74457039182055,Point_497,-1.9575155682033485,Mainling City
590.0,46.080578,0.0460500800434997,24.19189727294437,82.80136846796354,27.648346,19.27915561742052,Point_498,32.048425187004966,Sonbhadra
621.0,35.815697,0.0365760247722598,26.3562253639952,69.70641763143884,21.489418,18.7701130879865,Point_499,32.84269602033828,Sukkur Division
552.0,32.264347,0.0429123263525201,22.355121892872624,92.67369774867008,19.358608,67.74209673701993,Point_501,27.877011341518823,Lawngtlai
497.0,28.912827,0.03419511253014,21.581201460620072,75.13121897532204,17.347696,18.611323264841687,Point_502,32.19470611148415,Barwani
652.0,59.116383,0.049056502990439,23.800085976367075,95.78479380883311,35.46983,54.85163989289248,Point_503,29.39304324256051,Taung Maw
254.0,30.098852,0.0366005415900863,25.72972180739024,73.58806679579232,18.05931,16.297081126940746,Point_504,31.09567996131051,Marwar Junction
325.0,28.923887,0.0353111484132409,29.427542606616857,82.07576021326625,17.354332,46.80863170077762,Point_507,7.6352985594007805,Malikabota
665.0,44.022644,0.035137824205433,11.23975733195492,76.37352283928186,26.413588,74.95038588527194,Point_508,25.70561105940078,Malappuram
393.0,31.820559,0.0353576264460272,23.027879483528466,74.34272149342208,19.092335,22.79175947971105,Point_509,30.95105376773415,Dahod
407.0,30.708117,0.034812134926411,22.19407994925219,71.77471088091221,18.42487,20.6037555093051,Point_511,33.97832970089382,Salangpur
492.0,41.524864,0.0425767709678262,23.5845370563188,83.73545277404725,24.914919,14.953151460762406,Point_512,31.54911691877578,Balrampur
198.0,5.6898775,0.0191643207546933,30.001643645838502,84.03903584272526,3.4139264,37.42239156213448,Point_513,-0.7924493789672624,Drongpa County
289.0,11.233068,0.0258000113451524,33.63286285382688,69.72710471149136,6.739841,62.51707343471703,Point_514,10.004127226935507,Khibay
199.0,2.48348,0.0167574977406583,32.06878624239105,88.3014239444367,1.490088,33.528565157542985,Point_518,0.6927529864841517,Zhide
574.0,28.980246,0.038354737595223,23.81953569553098,80.17421291220694,17.388147,15.50267635095561,Point_519,31.614980634053552,Katni
1041.0,53.487995,0.0423966910117816,27.32306553284421,81.61283912945285,32.092796,19.70691954268268,Point_521,31.27673736148415,Bahraich
677.0,17.190908,0.0188887402562328,36.236004115276046,93.7249240081105,10.314545,33.02748081673776,Point_522,-3.025522295633948,Golmud
468.0,30.97673,0.0355465568850828,14.522508756573838,76.09315446080966,18.586039,45.46447641712604,Point_524,30.205624622768823,Chatnihalli
568.0,38.49942,0.0425769550754269,29.06978817876728,71.48069617177323,23.099653,21.810544600797645,Point_525,30.63828250037301,Madina Colony
477.0,30.802917,0.0374145955306886,22.94208155934391,76.12451735519794,18.48175,15.69882403904596,Point_526,31.488271649678552,Pitawali
524.0,38.536266,0.0495680698135048,18.65525003767965,83.24452609128285,23.12176,52.37355346898202,Point_527,32.556970108879966,Pedda Bantimakkuva
395.0,29.06352,0.036291789425718,21.86415819915118,93.59991921738448,17.438112,63.8178504727768,Point_529,20.55796023474801,Chin
196.0,1.9071267,0.0171396579235145,35.93716119359439,70.83214743493646,1.144276,69.95912449565893,Point_530,-7.402638181050577,Badakhshan Province
899.0,55.036137,0.0441181600967399,25.75981111539228,82.3297275576236,33.021683,15.940125053656054,Point_531,32.36168473561605,Jaunpur
1200.0,36.550312,0.0468186500926141,24.318203595926907,90.70846066600038,21.930187,67.28062637319186,Point_532,29.03507883283828,Pakundia
672.0,50.511192,0.037510776892294,26.91968371108255,68.92351238997509,30.306715,18.825200888527245,Point_533,32.90640316009524,Sukkur Division
492.0,54.29191,0.0380857998793069,31.17318815472401,72.80133167109864,32.575146,25.13639843066589,Point_534,29.11915815141469,Punjab
475.0,15.25394,0.020728602993769,30.245502535959453,80.91489777997954,9.152364,69.15088872263146,Point_535,-3.007116805182534,Kalapani
331.0,4.2498355,0.0155158354141786,36.28262308464535,71.81701245438481,2.5499012,72.41888500407177,Point_536,-11.677513398064493,Torkhow-Molkhow Tehsil
552.0,72.79173,0.0394923317115429,29.109942772212303,76.34980463515532,43.67504,17.621201664290737,Point_537,30.52987049950497,Jind
203.0,6.3633437,0.0187206035435126,30.50545737373897,81.2229394925096,3.8180063,61.86615364900124,Point_538,-4.602752113342262,Purang
165.0,2.777549,0.0211842300935699,31.6977523686999,94.00661098010872,1.6665294,77.67906975949923,Point_539,-7.589039548238077,Drogta
372.0,32.461945,0.0345454473736301,23.19738179478255,69.65260130331865,19.477167,33.8730489279117,Point_540,30.94706613752578,Bhuj
530.0,40.569885,0.0441132310810154,19.880752391883387,81.83903144552444,24.341932,28.03419499292725,Point_542,31.70029421912301,Kondagaon
464.0,22.919619,0.0405828598798027,17.52319396059537,95.0980095739384,13.751771,60.033439408390834,Point_545,31.31156809065078,Auk Yoe
235.0,32.092255,0.0346134136057012,34.3835129010744,71.9550600092801,19.255352,51.24214459795008,Point_547,22.30893679724801,Gulmera
647.0,42.752274,0.0517726865729999,20.502643466913952,84.24657529646682,25.651363,29.157210700606456,Point_548,32.91119102901882,Kandhamal
221.0,27.98955,0.0366670286567091,25.74250349864828,74.01177883131811,16.79373,15.130530657183586,Point_551,29.83813872867165,Bhagawar
633.0,46.81862,0.0518853382563034,22.071904793306032,83.3059978426975,28.091171,15.32143729483852,Point_553,33.668420304192466,Raigarh
414.0,24.011627,0.0362283326685335,28.38298024593937,95.12531305880655,14.406976,82.11398606232125,Point_554,17.46521392398415,舒木新
432.0,7.3212457,0.0178719950655926,36.86825976264643,89.44874706607573,4.3927474,60.88990599028011,Point_555,-5.817134708828348,Qimantag
903.0,35.735413,0.0222636733499995,36.5806083049267,96.96345707361525,21.441248,19.236359556335163,Point_556,11.473379071553552,Qinghai
1004.0,47.431133,0.0475660314162559,27.616368695897016,82.54604590818933,28.45868,21.553417641196248,Point_557,30.37528879377578,Balrampur
267.0,2.0086808,0.0167123163118982,35.09883817586751,88.00127706784593,1.2052084,57.89217571423461,Point_558,-7.109099769592262,Garco
306.0,29.328466,0.038042229608141,25.92516498022628,75.17871554677055,17.59708,13.17144701834522,Point_562,31.81436214447024,Kohra
558.0,21.136974,0.01693193551553,30.35339360851801,79.80302778740972,12.682185,58.107328568102886,Point_563,-3.925899357265848,Chamoli
588.0,31.772696,0.0381456130553625,20.47267528370225,76.97382895232236,19.063618,17.595912282985395,Point_564,33.21548519134524,Belkhandi
630.0,25.697815,0.0363359882260839,10.590347312619318,78.95822816988286,15.418689,56.562078346168896,Point_566,32.91021446651882,Minnathur
242.0,2.8020973,0.0144098413585065,31.34066342785752,86.76803903029285,1.6812584,30.19328139216105,Point_568,-1.2862373563978051,Ombu
943.0,44.269318,0.046679141121308,28.53126311628649,80.58342837126061,26.56159,24.54973027811192,Point_570,29.61316314273415,Lakhimpur Kheri
1004.0,48.133602,0.0435279214563008,24.437187421255217,87.68041864804114,28.880161,25.29803812325719,Point_571,31.86362429724801,Pakur
151.0,2.709869,0.0222293461672719,31.22146447770794,92.23970848859432,1.6259214,67.40190817677396,Point_572,-4.303517087300577,Taksar
471.0,56.020554,0.0382291057612282,31.00174135300459,73.32979377081523,33.61233,26.22071257421776,Point_573,28.98071685367165,Punjab
695.0,44.799232,0.0382522775640683,27.09386725785687,69.36756600068992,26.87954,17.666542270639393,Point_574,33.05017486148415,Sukkur Division
386.0,31.244755,0.033494758682136,21.662346157398947,71.33654712609726,18.746853,25.910938879279712,Point_575,32.191667917039695,Aliudepur
672.0,42.853035,0.0350995390667461,12.885657884739611,77.13999313823761,25.71182,42.94088822629723,Point_576,30.216366810268823,Sigekuppe
302.0,31.603333,0.0331969570821526,21.559674788282354,70.75519750864315,18.962,33.52732449885954,Point_577,30.961728138393823,Junagadh
311.0,38.967236,0.0352922417223452,27.60635143902398,71.22167128327497,23.38034,15.679936752084844,Point_579,32.64978423648415,Jaisalmer
503.0,37.090862,0.0390423078194238,16.24436724195094,78.84839087586693,22.254517,32.367437024067364,Point_580,33.78479400210915,Nagarkurnool
884.0,43.275192,0.0432622837049534,24.58663667604632,86.62859795915719,25.965115,20.533165488738018,Point_581,30.95395632849801,Jasidih
746.0,47.65847,0.0519034887242065,21.197913769181625,84.43124609829133,28.595081,24.518454479112464,Point_582,33.998864640129966,Daincha
496.0,34.071335,0.0319071717085631,32.62863067712897,75.37598652284285,20.4428,45.08669980890414,Point_583,22.84854183197024,Nagrotu
117.0,3.5678196,0.0188295535259152,28.36399946538247,90.9787257547103,2.1406918,81.14044969091687,Point_584,-5.371550941467262,Lhozhag
314.0,40.390083,0.03771236749781,28.233672947615915,75.25650329971563,24.234049,15.539058105933062,Point_587,30.66068918440078,Lootoo
277.0,30.250975,0.0355251779535042,24.247729990406768,72.66511160612862,18.150585,21.7799423221681,Point_588,30.036611493428552,Banaskantha
733.0,33.50971,0.0362522311034353,17.922169462817642,75.56019929327736,20.105825,14.321642198451231,Point_594,35.38837744394942,Grampanchayat Angar
229.0,29.519053,0.0337720292758518,26.20019172361327,74.57294153316451,17.711432,13.987129674831694,Point_595,30.692522409227195,Nayagaon
827.0,69.167274,0.0491847027184829,23.3983756076017,86.7759505125186,41.500366,20.01919539948929,Point_596,33.26774484846328,Purulia
561.0,31.118025,0.039967085123747,23.7024275526466,81.52351973321464,18.670815,13.77243498256445,Point_597,32.00218766530355,Shahdol
199.0,2.340717,0.0174626640118397,32.46356310839418,88.7441270228062,1.4044303,38.42009841339824,Point_598,-1.408578936258948,Zhide
362.0,28.616686,0.03242539800703,29.78447349966023,68.45880465866925,17.170012,19.09487949792441,Point_599,26.728017743428552,Sibi Division
134.0,3.1989682,0.0171196646988319,29.721393305980445,89.60318398534989,1.9193809,43.80975387563294,Point_600,0.776099883185509,Sogqên
417.0,28.192034,0.0356000297640041,22.93643642877016,74.707293886932,16.91522,21.328235264749683,Point_602,30.57883425818551,Jhabua
884.0,44.540554,0.0457345657050405,24.944198334266897,86.26854446769394,26.724333,22.023161955895816,Point_603,31.38536637624105,Jamui
147.0,3.135075,0.0159252081544206,30.80963576747813,86.02977847194674,1.8810451,27.574356289692386,Point_604,-0.4422296524047624,Nyigo
359.0,31.591702,0.0367914674182757,24.43645228733712,71.7417869805982,18.95502,19.744964983497034,Point_606,32.15708132849801,Banaskantha
203.0,2.9614773,0.0167890056671471,32.35613623034154,89.29903259980391,1.7768863,35.45389333146415,Point_607,-0.711571015251991,Domar Town
708.0,36.223152,0.0347123226422821,25.020042372182,69.47130224227163,21.73389,26.254024747978576,Point_608,31.71256906721328,آهوڙي
841.0,51.43211,0.044731657133271,26.07628784234321,80.178808653383,30.859266,15.309701024951492,Point_612,32.263268937004966,Kanpur Nagar
367.0,40.359013,0.0347860362665902,26.16761074442676,70.83843074743078,24.215408,16.8086258223563,Point_613,31.96521392398415,Neembali
652.0,45.998146,0.0459254189910688,23.129439968719808,95.85491535726057,27.598886,51.83337485163295,Point_614,30.547665638393823,Sagaing Region
516.0,32.22462,0.0355522178949677,31.087469810886613,76.6087775014929,19.334772,27.73452971914292,Point_615,27.29624148474801,
125.0,4.1715074,0.0163308030353765,31.728803800102337,81.15950484795654,2.5029044,36.66642686230982,Point_620,-3.826724010043677,Gegyai County
217.0,2.8916044,0.0211120179712886,28.97293744548092,92.3190531671776,1.7349626,55.26097479340224,Point_623,-0.623178545633948,Shakjang
988.0,49.13742,0.0497069992125178,22.558679831524948,87.61371729181342,29.482452,39.61400517817937,Point_624,33.68496761322024,Paschim Medinipur
993.0,27.632528,0.0451138302683663,23.32817348513968,91.30305725966582,16.579517,78.03774323026848,Point_625,28.777049318949423,Sipahijala
320.0,12.785442,0.017475676443319,35.875846128790826,93.28912126360476,7.6712656,50.04625203159431,Point_626,-4.803150876363077,Golmud
289.0,9.140434,0.0158500114185527,34.48592202713225,96.40671052826224,5.4842606,76.44730227348788,Point_627,-8.045284122890848,Qinghai
198.0,6.8914,0.0213202964313272,29.20930024600433,84.82897738255525,4.13484,38.18742116136953,Point_628,0.063941680060509,Saga County
549.0,33.291557,0.0305446361708311,16.85695682015391,73.48033777049473,19.974936,60.00098634109947,Point_630,29.16618234846328,Lanja
274.0,6.1171556,0.0220559217933663,35.34504784955254,74.37203315240995,3.6702933,75.56906324064747,Point_633,-2.540930281745034,Diamer-Astore Division
93.0,9.195441,0.0196312136645625,29.287726038075704,83.93219038965307,5.517265,38.43595110532345,Point_639,-2.3160225126478053,Lomanthang
492.0,39.54751,0.0453536776003527,23.84173005429541,83.87606831010861,23.728506,15.200028010546015,Point_640,31.601254505581323,Garhwa
733.0,37.339294,0.0353330361006934,17.743084418680155,75.10298330661472,22.403576,17.588407876121067,Point_642,34.19131526947024,Tandulvadi
610.0,37.274914,0.0385593140896113,14.299384691241888,77.4923631729361,22.364948,26.53433690507405,Point_644,34.26792117224801,Ramagiri
196.0,12.827039,0.0190112864425054,35.15885353820994,70.07282300339938,7.6962233,60.77531400950885,Point_645,0.4940225177341517,Nuristan Province
530.0,42.66795,0.0496026864275471,19.623054201044848,81.49128363514139,25.600769,35.7827012362827,Point_646,31.10655778249105,Kondagaon
277.0,39.87977,0.0389259528258132,27.531027080725405,72.08107613218655,23.927862,14.848466579076533,Point_647,32.13609879811605,Phalodi
508.0,31.336603,0.0426825683116359,23.74144628847305,92.64229688771216,18.801962,77.97235731554768,Point_648,24.73961442311605,Aizawl
970.0,49.342525,0.0529882173662772,26.280052112124867,91.77370099469726,29.605515,55.09886592025818,Point_649,27.461253420511923,Kamrup
377.0,28.208567,0.0376628046611497,24.21085321520741,77.60431355933866,16.92514,14.236593022715445,Point_652,31.10855159759524,Kansi
424.0,5.6091876,0.0252120535953003,35.31388839165133,68.15844506702742,3.3655126,70.65463757930284,Point_654,7.760691897074423,Baghlan Province
134.0,3.5933928,0.0163037409123806,29.54766767702704,89.9799384891458,2.1560357,40.48159793246189,Point_655,-1.7293254640367195,Lhasa
659.0,49.23816,0.0367636631912258,12.72378434584911,78.05506664858872,29.542896,41.00846782809619,Point_656,31.90908870697024,Krishnagiri
713.0,41.02222,0.0511171028018167,21.10880700475099,85.86353508348125,24.613333,52.75025919116053,Point_658,32.23197824690078,Kendujhar
329.0,1.1558889,0.0140401643482223,36.30659403288867,76.41784201467146,0.69353336,73.48844165337471,Point_659,-13.683264266120034,Dafdar
444.0,30.434118,0.0392960534745223,24.67429086821159,79.10953597460026,18.260471,15.56487555177856,Point_660,31.26735151078969,Patrai
478.0,31.237316,0.0391941967538404,22.249337726696577,75.59677037980526,18.74239,16.707559116927982,Point_662,33.665002335442466,Khargone
400.0,34.32028,0.0348733879079707,32.12952759261583,71.74944343249379,20.592167,27.34027500770648,Point_664,27.96095502641469,Mianwali Division
306.0,29.82611,0.0383073027701124,25.15896275458809,75.6422021084706,17.895666,12.413455075842588,Point_665,31.956194284227195,Shivpura
261.0,3.0064797,0.0144464286764916,33.528413518132645,91.82402111390508,1.8038878,53.83957458731623,Point_667,-6.681514591640848,Yanshiping Town
329.0,1.7474518,0.0151365627667054,36.50812007394312,76.7665741437907,1.0484711,63.22633072142917,Point_668,-8.315249400668677,Xinjiang
297.0,41.671867,0.0374772613077354,26.79487114411493,72.54341060230277,25.00312,14.347012997802256,Point_669,31.59177371131051,Barnau
218.0,2.48627,0.0176729517311222,31.66699269052183,93.08204876706164,1.4917619,74.92879151499532,Point_670,-6.571868324279762,Biru County
388.0,35.729374,0.0403909005224776,25.099908001706584,76.54390800452498,21.437624,14.92998808299411,Point_671,31.614451662699423,Baran
1101.0,54.087093,0.0474742520651232,25.51113705030987,85.91381131255653,32.452255,26.20248204022615,Point_673,31.00656863318551,Teghra
708.0,79.74619,0.0429427462422417,27.98953163925645,78.30038696301533,47.847717,18.825784011337483,Point_674,30.468211428324423,Atrauli
362.0,27.030863,0.0320338370745594,29.71585717343234,68.728196432207,16.218517,19.00267210832991,Point_675,25.816844240824423,Sibi Division
320.0,37.364166,0.0399393376853946,27.71678310892269,70.112958125228,22.4185,17.05652793378582,Point_676,32.17197390662301,Jaisalmer
338.0,25.482164,0.0398914251708651,17.446901370358106,94.60073547160776,15.289299,71.29101292789933,Point_677,29.964793459574423,Da Ni
646.0,37.86925,0.0436070646595808,20.42719455605877,80.7708366572561,22.72155,19.70281747554821,Point_679,33.74803727467855,Manpur
682.0,41.979656,0.0418642312288123,19.478032591246205,80.2036914698852,25.187794,21.53097388607028,Point_680,35.39867204030355,Pindigundam
601.0,27.836418,0.0424786374063927,15.689951914094554,80.06246857354988,16.70185,65.12376122925905,Point_681,33.000085343254966,Kothakota
1187.0,50.237965,0.0449179521771855,25.237246514614327,86.74406326985944,30.142778,25.9600168493882,Point_682,30.960629505581323,Sultanganj
416.0,33.17761,0.0405839233756855,24.757639772406108,76.0251495916796,19.906565,14.301309214910091,Point_683,32.01887060801192,Dhani
315.0,2.8655987,0.0149271129630601,34.67107395266895,85.37763383014261,1.7193593,63.1469389600905,Point_684,-10.781381670633948,Chabu
90.0,2.4497468,0.018520980429934,28.87056015268985,91.349188053835,1.4698482,52.43461199464934,Point_686,-0.4636190838283482,Drigu
235.0,40.09026,0.0379647310854293,27.03653115665948,75.91162356334253,24.054155,15.074893422364555,Point_687,30.22105973561605,Jaipur(Rural)
783.0,42.326843,0.0261015762460481,28.580621772608943,83.81949479535776,25.396105,69.73621261817388,Point_688,-3.2421699735853053,Gandaki Province
696.0,36.968525,0.0737262573092864,28.177146896117904,85.27140675354747,22.181114,54.34205093232902,Point_689,7.943539661831323,Gongang
452.0,41.916855,0.0426696050960113,15.749949631379891,78.41846930714627,25.150112,24.42161293782367,Point_690,36.38811973995632,Alaganur
508.0,29.195833,0.0451089285083288,23.938843485320504,92.17746001422194,17.5175,80.87106586201752,Point_691,26.444055069817463,Dasda Bazar
373.0,14.761877,0.0196834766225332,35.825257066154435,96.58309931469272,8.857126,55.72723298407859,Point_693,-2.3343194961547624,Qinghai
117.0,5.4715276,0.0194238900860988,28.02394555429213,90.79875177218864,3.2829165,77.95247014441665,Point_696,-5.933332082960305,Nangsiphel_Zangling_ Zhabjethang Chiwogs
436.0,46.841408,0.0474510805671445,19.3431619692268,83.5479758619663,28.104845,56.16507261954808,Point_698,31.46732980940078,Rayagada
583.0,39.646946,0.0447456490253403,20.10636817509135,82.28980846059785,23.788168,22.53814076362061,Point_699,33.75842681460915,Gariaband
665.0,32.960804,0.0448996410836061,20.911434318668068,92.28430251926166,19.776482,78.48268101357884,Point_700,29.366594674852195,Keromtoli
1331.0,59.543694,0.0408111961094085,26.22070740882216,84.56148950008031,35.726215,19.046512695284022,Point_701,31.82346316443551,Siwan
610.0,31.7493,0.0344686036339816,19.6363885074728,74.68819209086203,19.04958,20.5808653775538,Point_702,32.01591379377578,Brahmangaon
547.0,30.208603,0.0457366981822721,17.85697378734413,96.64634876770324,18.125162,48.80176229017024,Point_704,32.94636084238692,Baing Dar
598.0,40.920807,0.0431820458422249,15.606540706729987,77.28449697895056,24.552485,22.45145551532409,Point_706,35.326013077629966,Adoni
1331.0,61.40458,0.0515691763411071,26.11374071696704,84.16293780203182,36.842747,19.7423090606013,Point_707,31.660539987352195,Siwan
513.0,35.18337,0.0494927503168564,26.88670751475859,95.30012954444848,21.110022,79.07775376127671,Point_711,21.559031740824423,Ngamding
860.0,52.959755,0.0442150179296751,25.88539117960752,81.818810724596,31.775852,14.982385378338977,Point_712,32.63064632415774,Lalganj
269.0,5.971341,0.0162379702248428,34.193347522120675,94.54573341420192,3.5828047,65.9570899996495,Point_714,-6.510290633307534,Zokya
611.0,42.968727,0.04417446911252,24.106549840028844,83.68860522479014,25.781237,15.02699967392844,Point_716,32.116838815477195,Jarhi
588.0,41.486927,0.0406992500510327,26.26887610880176,78.77734626843636,24.892157,15.891631247414756,Point_717,31.60349246131051,Neemdanda
695.0,53.63149,0.0384056916162886,28.85982929010764,78.71925113858512,32.178894,22.704668536740705,Point_719,29.699249839782738,Rasulpur Sunbati
388.0,35.41469,0.0404011405553678,25.681650714461018,76.40429850348461,21.248812,13.595024398560149,Point_723,32.304772843254966,Dhipri
292.0,4.826694,0.0164656934596017,34.94554371849085,91.5877880657133,2.8960164,63.61509396145589,Point_726,-7.659596188863077,Zokya
612.0,40.634468,0.0450118919956412,25.615553219154386,79.18711793481751,24.380682,13.902638310911886,Point_727,32.15586062537301,Gursarai
444.0,30.144472,0.0402636836826985,24.415178313054987,79.59605907322882,18.086683,14.878687211357954,Point_735,31.203847821553552,Damoh
757.0,46.367794,0.0547248525544968,21.6994511633916,86.9344772886686,27.820677,50.89349041694504,Point_736,32.65678293440078,Mayurbhanj
541.0,45.632565,0.0450154491235717,17.381032757073136,78.6103041008685,27.37954,27.2679486013702,Point_737,34.06396880679665,Abdullapurmet mandal
272.0,20.408117,0.028269400509694,30.905306673505304,69.20759535374133,12.24487,34.54192119090704,Point_738,19.376848581102195,Zhob Division
558.0,45.158833,0.0405359755119399,21.77160186035637,94.341208779309,27.095299,38.77189316063327,Point_739,29.844472821553552,Magway
1046.0,29.805485,0.0484586943330746,22.478594309025382,89.61552093285147,17.883291,62.93687029786883,Point_740,32.252825143602195,Mongla
576.0,46.144478,0.0380611417048086,29.29594500399277,70.22307842075311,27.686687,19.15735386833596,Point_742,30.37874745262997,Dera Ghazi Khan Division
329.0,2.187782,0.0132811442017569,36.86418304846112,76.20673291090506,1.3126693,53.66908347153775,Point_743,-5.674231062995034,Xinjiang
562.0,58.843395,0.0346172995865251,30.560453630928944,76.50638565589398,35.306038,22.90279114514657,Point_745,29.027646107143823,Chandu Mazra
598.0,39.79039,0.0403792514377077,15.198033693464511,77.26313417834815,23.874233,24.099455942537706,Point_748,35.21802154117165,Yerur
639.0,37.111237,0.0350324932032022,18.205044100001608,76.76305162248977,22.26674,14.77866690495078,Point_752,33.70368506113692,Rathoda
199.0,2.1050777,0.015690712568662,32.48189377790698,88.06987618414696,1.2630466,44.83002341965688,Point_755,-2.851856931050577,Codrel Lhoma
683.0,38.767715,0.0339706097729616,18.31068591866081,74.70356232596869,23.26063,20.615472530116552,Point_756,32.72009673648415,Khadaki
452.0,19.984694,0.0282476815237271,30.83267781500321,68.79222587237075,11.990816,33.63726290830909,Point_757,20.15727121565078,Zhob Division
1075.0,43.966274,0.0618141160599301,27.942556982428314,84.63410417973651,26.379765,26.54397926643937,Point_758,24.617381350199423,Gandaki Province
90.0,5.6342807,0.0188830735685004,28.1835586217191,91.68356063079572,3.3805685,79.66813194030631,Point_759,-4.003047794765848,Tsona City
542.0,28.755608,0.0366481209159105,22.446093544860936,77.02745899274976,17.253365,20.693867416463345,Point_760,31.86239003075497,Kunjargaon
231.0,5.261538,0.0260312272811935,35.64621488484626,71.78328645741415,3.1569228,58.147654179204046,Point_761,5.835765139261923,Chitral Tehsil
703.0,41.272594,0.0458633076107085,27.825415600003343,94.1979227113832,24.763557,83.13469704488871,Point_763,17.652741050720238,Kamle
444.0,33.6577,0.0407673795616935,24.87217424530309,79.5473790527291,20.19462,13.283752201660915,Point_764,31.977122561136923,Dhadari
601.0,28.75915,0.0521199479698853,20.567948843450697,86.33612629300069,17.25549,63.06357164627493,Point_765,32.65305300818551,Kendrapara
588.0,58.700706,0.0412763620447339,26.99505651126628,78.11169260600427,35.220425,18.02158862566084,Point_766,30.95080962710915,Shamsabad
762.0,48.17953,0.0384610359624647,29.61509623219425,78.13290567640962,28.907719,23.970397341121554,Point_767,29.035960451761923,Bijnor
695.0,57.77892,0.0460611261426319,28.734074114930657,78.89911763175058,34.66735,21.90898199939406,Point_768,29.93489979637997,Lala Tikar
476.0,27.836418,0.0436112684298738,15.720131787443036,79.94140853577242,16.70185,54.64970723541261,Point_771,34.30345719655355,Dhenuva Konda
254.0,27.3037,0.0299221773942413,33.66083413254732,73.75062358492372,16.38222,54.23299089492962,Point_775,18.591014162699423,Balouch Tehsil
1312.0,53.05876,0.0530044197502816,25.977968100035337,88.78552303656201,31.835257,37.026585608149695,Point_777,29.06955691443551,Nilphamari
254.0,2.0159683,0.0159294197234677,30.45444057761232,95.21144256276064,1.209581,78.41523246780152,Point_778,-6.618960338168677,Xümo
667.0,35.247852,0.0364431683741611,17.816965333449772,76.30656378526919,21.148712,13.337374718350754,Point_779,34.69404150644942,Naldurg
639.0,31.014961,0.0351960342377521,14.449263025949993,74.62153184899819,18.608976,71.20747337431231,Point_781,28.27140695783828,Uttara Kannada
626.0,39.235317,0.0464353401440262,23.28318072033626,94.08565511534673,23.541191,54.71936044626595,Point_785,29.093740399678552,Maw Laik Ka Lay (South)/Maw Laik Ka Lay South
584.0,29.03745,0.0413913570344521,17.161628031265195,81.01625378883273,17.42247,59.72410219174908,Point_788,33.09911149342855,Yerraguntapalli
337.0,3.034538,0.020952291773203,35.599388246266514,69.74387465754535,1.8207228,62.689369596791536,Point_789,-3.1925958633422624,Baghlan Province
489.0,36.40489,0.0360489504764605,22.27669308810271,72.74025001066869,21.842934,28.279511100032657,Point_791,32.84726687537301,Anand
328.0,18.007412,0.0287949191722476,31.99454464347212,77.344873228049,10.804447,60.31582448201858,Point_793,6.311703724331323,Kullu
508.0,58.837223,0.0389868433545287,30.04686842157101,72.55701578106645,35.302334,25.01977135012476,Point_794,29.46399322085915,Punjab
332.0,40.129707,0.0365550765228907,23.53633179924528,72.92941769137433,24.077824,25.83852828032066,Point_800,31.08535823822024,Sabarkantha
254.0,45.11177,0.0327481136999741,33.49017569455851,73.4748262542112,27.067062,54.67045900063787,Point_803,22.30895036061605,Khal Kandiari
832.0,33.754036,0.0580524396996576,25.8105738327442,91.86860333128146,20.25242,61.91278345336033,Point_806,23.61696088578969,Myrdon
620.0,30.546383,0.0342581596438151,19.39117213035053,75.0649738312448,18.32783,19.99839273795223,Point_807,32.36555029551192,Jeur
232.0,7.8311315,0.0214432773876922,35.752039607763486,73.42413028817423,4.698679,67.88653176088089,Point_808,0.4886785507202376,Diamer-Astore Division
346.0,48.854282,0.0415310001973626,27.130746925361507,91.20567274427913,29.312569,74.17592537670346,Point_809,17.78544504377578,Kalapang Resa
590.0,33.87606,0.0448333314046964,22.30303160418948,80.17646609035808,20.325636,17.132597513337984,Point_810,32.12429866790774,Balaghat
749.0,34.678288,0.035110348835578,12.232973556083197,76.130686807611,20.806973,63.23223514101892,Point_813,27.207062339782738,Kachuvinahalli
583.0,45.67315,0.0480412033246422,20.47321546500921,82.83325586512574,27.403889,21.985277883895314,Point_814,33.57450754377578,Turekela
199.0,2.2116745,0.0149369806465286,32.403083364620855,88.37276687187355,1.3270047,36.56866122541389,Point_815,-4.048105303446448,Zhide
713.0,50.315582,0.0494905670371001,21.329900776279715,85.25607068015474,30.189348,43.56346082518251,Point_816,32.761858346727195,Angul
311.0,38.967236,0.0370105028152456,27.92167149539253,71.17908396944276,23.38034,15.69263482434456,Point_818,32.40820708804665,Bahawalpur Division
659.0,40.501717,0.0401670305650492,12.248254150811867,78.37353030011477,24.301031,39.385823947546,Point_819,33.45852718353274,Krishnagiri
691.0,43.95278,0.0447900983017702,23.3969092766846,85.56342414852635,26.371668,18.629715568441046,Point_821,30.86036908891469,Ranchi
372.0,35.63359,0.0313907858405956,23.01178164397176,69.26788441465244,21.380154,54.32680466019665,Point_822,29.495921389261923,Ratadiya Nana
660.0,32.613827,0.0357340987981028,9.912142759209551,78.02890566903305,19.568296,42.50628499689663,Point_827,34.16642648908828,Madurai
672.0,41.389835,0.0376108603113337,12.368897229948717,77.21405638164929,24.8339,45.24434274201947,Point_829,30.792538685268823,Ganalu
545.0,50.00213,0.0396209738505041,29.8178407629659,72.54186040434337,30.001278,25.06294257564961,Point_830,29.485301272074423,Pallah
196.0,13.719775,0.0250458057670019,35.05790736230159,70.30418190815425,8.231865,54.478400336163446,Point_831,7.317047691345238,Nuristan Province
731.0,7.0019794,0.0241959641940802,27.985664805215293,87.16589285962743,4.2011876,72.0356876487527,Point_832,-5.894676484001991,Tingri County
262.0,8.284227,0.0177091260751122,33.76271762324262,96.80697626752308,4.9705367,77.74685392410157,Point_833,-6.360835880703348,Lazhawo Mada
686.0,40.496723,0.0443501185606591,19.528234808937576,79.0537940535741,24.298035,19.41322914629102,Point_834,34.534563424852195,Bholepathur
1200.0,43.715836,0.0459306858480042,24.02327469634284,90.07025563477815,26.229502,57.99245210385188,Point_835,30.685008303324423,Dhamrai Subdistrict
555.0,56.155937,0.0442282248684851,25.389915223540925,95.83795718657656,33.69356,54.06547704037398,Point_836,27.20725222693551,Sagaing Region
223.0,2.1050777,0.0155714817730731,32.70662727688713,87.82911363594405,1.2630466,43.72028207432971,Point_837,-2.7657295438978053,Tsodrel Jangma
366.0,4.7235017,0.0207513977612001,34.826353512422614,68.43134889607052,2.834101,83.28349778256654,Point_840,0.3682494057549661,Parwan Province
151.0,2.709869,0.0180894895276768,31.51949980545263,92.49929634438908,1.6259214,69.07793829419528,Point_842,-4.369380802578348,Kormang
695.0,46.940544,0.0382552792628678,27.359137788831028,69.16386120833405,28.164328,17.864937097438247,Point_843,32.56509456634524,Sukkur Division
592.0,48.52887,0.0430837321643738,16.56763410437761,77.08497113515183,29.117321,16.536165521987854,Point_844,35.67483577728274,Vadagera
544.0,33.502842,0.0378262520290027,17.942444055760184,82.4945693961142,20.101706,65.70097091996914,Point_845,27.649404462178552,Onjeri
351.0,2.8154545,0.0159960517998939,35.91405465366219,89.48169303888652,1.6892726,76.87492192399398,Point_848,-11.65278737809922,Zokya
333.0,2.5262125,0.0149814438146961,33.13693359149241,92.42035590485858,1.5157275,72.49943176487089,Point_849,-8.594180064731177,Yanshiping Town
1301.0,55.26101,0.060169688805344,26.134104754722927,89.60572936910289,33.156605,47.39524058218372,Point_853,28.498810386657738,Kurigram District
223.0,2.1313217,0.0141886005344783,32.60098918248573,87.03494451691168,1.278793,36.43158170775924,Point_854,-3.1358196046617195,Rongma
328.0,10.075132,0.0210259411438691,34.12903070830686,69.583396866968,6.0450797,62.56229305427336,Point_855,7.783478355407738,Azrah
1301.0,54.879665,0.0495809800923035,26.13730115639134,89.14306458471651,32.9278,42.21020033248236,Point_859,28.48253434499105,Hatibandha
601.0,43.088753,0.0422590672961945,16.318690533781012,76.68596544266993,25.853252,17.81804457665838,Point_860,35.45481082068551,Yarajanti
471.0,38.11666,0.0371241916148095,18.94249755636176,81.84787060465443,22.869997,46.95823606329135,Point_861,31.090390247768823,Tirathgadh
680.0,22.212114,0.0366720971651323,10.74032091206344,79.42329301189227,13.327269,58.8632199813094,Point_864,33.016686905754966,Poovanoor
588.0,61.114742,0.0425374226397199,26.789112539252933,78.52280181222012,36.668846,17.991984152144056,Point_865,31.119944826761923,Agra
541.0,33.716724,0.0331288902435039,20.58316426624241,74.77323804133624,20.230034,18.362545135021424,Point_868,33.11221370697024,Nashik District
733.0,40.612324,0.0518019951947884,28.099756670901684,82.2437241942383,24.367393,24.788875396344466,Point_869,27.40748822953969,Lumbini Province
827.0,58.70222,0.0524224793415604,23.55794609007669,86.99095655366162,35.221333,19.851468468653955,Point_870,33.46940500471328,Bankura
270.0,2.7343793,0.0147509705275306,32.59389722744601,91.81757143900526,1.6406276,65.68982589237021,Point_872,-7.479094886779762,Amdo
1077.0,56.950485,0.0505184304950425,27.22888353321183,83.66538005804236,34.17029,18.996390087280624,Point_873,31.31181223127578,Mahrajganj
123.0,2.9916573,0.0152066672232003,32.52838880390188,83.70320645378366,1.7949944,26.95483938601445,Point_874,1.3762517929077376,Oma
235.0,38.509693,0.0362682980646527,27.21208504024361,75.05937376689084,23.105816,14.835764927261938,Point_876,30.03091487884524,Motipura
1043.0,51.499516,0.044176487741392,26.214413204203204,82.08919759764562,30.89971,17.034535427021037,Point_879,32.09785010019942,Sultanpur
592.0,27.361055,0.0217740945518234,30.681132890029986,78.9974719534789,16.416634,59.42823571253164,Point_880,2.673316680060509,Rudraprayag
377.0,29.92094,0.0402924440242013,24.882312488426955,77.17466635241043,17.952564,14.958135360690672,Point_881,30.620785755581323,Khadela
558.0,29.162518,0.0434847865785822,30.034478072544307,79.33003293111614,17.49751,35.416242590484046,Point_884,19.84863677554665,Gairsain
587.0,49.73438,0.0377101736764145,27.4349450141865,77.29448842011041,29.840628,17.016983993731394,Point_887,31.08908816443551,Sahari
482.0,34.353607,0.0420834145012527,25.29959991906745,78.84590952402137,20.612164,14.715682640469616,Point_889,31.70988352033828,Jhansi
116.0,4.4204426,0.015512733409806,31.77417084314204,80.36698930741693,2.6522655,47.59336312614168,Point_890,-5.217796601189491,Günsa Township
749.0,37.167606,0.0361193446258386,12.272114428008605,76.65633397008294,22.300564,52.98912001773347,Point_891,29.353017743428552,Mysuru
610.0,32.608208,0.0334497625008144,19.779882562141708,74.56621708694601,19.564924,19.876125002202173,Point_893,32.44835465749105,Ahmednagar District
468.0,31.983208,0.0377291764092018,14.306350057613711,76.96798517075328,19.189924,32.93526655767634,Point_894,32.59855539533828,Mayidarlapalle
568.0,38.49942,0.0432416337231605,29.069963078840267,71.49936028617967,23.099653,21.810544600797645,Point_895,30.63828250037301,Madina Colony
444.0,31.314226,0.040897224632251,24.3560093812248,79.93110705444683,18.788536,15.468714752265228,Point_897,31.729930178324423,Santa Budhasingh
738.0,25.428324,0.0368163813237241,27.61144375735401,86.79050396188033,15.256994,54.10083488737758,Point_898,10.16947824690078,Koshi Province
478.0,30.802917,0.0371445807487422,22.854144807600967,75.8664702408311,18.48175,16.437455142123884,Point_899,31.27121707068551,Indore
647.0,51.43363,0.048867550492289,20.919592966758604,84.00460984240024,30.860178,26.75895478560445,Point_900,34.689104440477195,Birmaharajpur
576.0,35.014843,0.040779410291096,19.45709389143782,78.63513931142911,21.008905,16.981905633702393,Point_901,33.591027726067466,Keslapur
168.0,2.7373817,0.0143169864046181,33.89691256554531,83.72195360075264,1.642429,37.1679161487216,Point_904,-4.333234426710305,Chabu
803.0,57.67587,0.041600968071096,27.278957026678107,80.57621442683474,34.605522,19.26540949754966,Point_908,30.83317453596328,Misrikh
388.0,32.37211,0.0385324542536378,25.62526045995884,76.74851545150648,19.423265,14.366751754861998,Point_909,31.504466311136923,Mayapur
198.0,6.225575,0.0187434257671774,29.850130839790896,84.38680329013249,3.735345,36.03856897308527,Point_910,-2.271887312995034,Drongpa County
327.0,21.661074,0.0297765907063057,31.8685412387144,69.58957289207292,12.996644,36.38268096503216,Point_912,21.53761518266469,Zhob Division
444.0,30.144472,0.0389281690120675,24.6112827335852,79.59927793493064,18.086683,13.78603686969262,Point_915,31.75521229637997,Lahar
709.0,31.490059,0.038871614321254,11.06404130480686,78.4713896719655,18.894035,42.41059766369316,Point_917,34.946252335442466,Mavilippatti
597.0,25.95879,0.0379934127841629,20.35664347133127,94.1322832401982,15.575274,62.84110560142436,Point_918,26.679406632317463,Magway
675.0,59.933014,0.0419582836330076,27.65251382908713,68.18891816245201,35.95981,18.83837416387443,Point_919,31.966990725199423,Sahib Khan Jatoi
437.0,32.037624,0.0305470731109363,22.064243914438748,70.66574533988442,19.222574,35.265596840812265,Point_920,30.591298993428552,Rajkot
168.0,2.7373817,0.0136380238136703,33.811005930558885,83.78939391583255,1.642429,37.51740853683405,Point_924,-3.196949704488077,Chabu
306.0,31.368933,0.0373469707824251,25.80246069110349,75.7323962480583,18.82136,13.33827751700949,Point_925,31.82340891096328,Baloonda
474.0,68.45633,0.0392272607378223,28.803224858773543,76.03889359824063,41.073795,17.656723726628776,Point_927,30.486115074157738,Dinod
677.0,15.702455,0.0178049028980364,36.32785541309051,93.34638909809482,9.421473,30.36875583690516,Point_928,-3.186438094245034,Urt Moron
328.0,20.98413,0.0245314673520587,31.4603293812328,77.21996009672851,12.590479,49.60621888421111,Point_930,11.158030764261923,Mandi
156.0,4.445433,0.0195082677528356,29.403221294545208,88.47297122140915,2.66726,25.43801260341106,Point_933,3.5285955429077376,Rungma
199.0,3.037634,0.0159450810249678,31.84367960156,90.62142792959526,1.8225803,39.2994264353505,Point_934,-1.5102363798353051,Baingoin County
819.0,55.8461,0.0513313116410409,22.65078832914567,86.4118492923216,33.50766,21.97698150320965,Point_935,33.681536081102195,Mahulia
478.0,32.248745,0.0371911325321999,22.61992363567959,75.99443727698667,19.349247,15.06855262269706,Point_937,31.91941043006051,Indore
272.0,25.184004,0.0334318620042943,33.251364968223655,71.75531901239796,15.110402,48.170733836304805,Point_938,24.085263294643823,Tora Bhera
633.0,40.386757,0.043288322290283,22.70066914203411,83.87257695640085,24.232054,16.09576975355705,Point_941,32.00739599863692,Jashpur
682.0,39.961617,0.0416274460250747,19.93994131875997,80.48092203628156,23.976969,21.26018169920596,Point_942,34.63946251339382,Markanar
63.0,4.4488635,0.0164698247232247,29.87842176778884,86.9284735018355,2.6693182,33.33345858019562,Point_943,-2.2455743789672624,Darog
596.0,34.56412,0.0395609969032325,18.28465283093676,80.83851763050522,20.738472,47.23117426119766,Point_944,33.82697607676192,Bijapur
1101.0,48.89938,0.0497523186574104,25.118366313966188,85.7880813887281,29.339628,22.062377517402098,Point_946,31.33750125037301,Sheikhpura
379.0,29.32944,0.0371650173544032,24.416151694635737,75.5418879720904,17.597664,16.11815782466145,Point_949,31.734812990824423,Garh
816.0,27.764105,0.0414293682985366,16.755813190488965,81.32127507364834,16.658463,64.02841538961208,Point_950,33.20359011756051,Malkimuhammaduram
386.0,30.708117,0.0343378763645915,21.98194983972884,71.73907071536986,18.42487,20.774988750194083,Point_951,33.93415381113692,Bhavnagar
160.0,3.7029648,0.0197448597004474,32.26158437719637,95.70292707178336,2.2217789,56.23126598493605,Point_952,-2.689150767856177,Dompa
708.0,38.14274,0.036116125945581,25.1583258561326,69.40269412085829,22.885643,27.81045329412164,Point_953,31.339047474331323,Mirpur Khas Division
327.0,45.725166,0.0370016568815424,26.37780068653216,71.99429179290914,27.4351,14.642088489966868,Point_954,32.26813818613692,Jaisalmer
475.0,9.061358,0.0172977709509645,30.64919970939448,80.01690960127632,5.4368153,66.76015570634506,Point_956,-9.067907820807534,Pithoragarh district
633.0,35.46119,0.040549435613252,22.91004608857177,83.84347018984582,21.276712,16.644682470341674,Point_961,30.937042808532738,Jashpur
1193.0,60.13522,0.0460899403420547,24.16888074413688,88.41861034011377,36.08113,36.73625485766913,Point_962,31.499447864956323,Murshidabad
707.0,43.307796,0.045857838271197,20.22934529980246,79.08182115452159,25.984678,17.99960877635787,Point_963,34.32731516096328,Pawana Rt.
232.0,7.377886,0.0280105506887495,35.51620423552457,73.55332206240249,4.4267316,58.93204503699284,Point_964,5.702328724331323,Dibech
271.0,4.2924213,0.0162576455129545,34.042599215527204,76.04795450433278,2.5754528,69.05234447150666,Point_966,-11.300668780008948,Ladakh
793.0,34.923676,0.0454760571902025,29.318127770390863,79.72711508197412,20.954205,26.322267268361475,Point_967,22.925961536831323,Tanda
262.0,7.137204,0.0189342203051704,33.023335371693264,96.27393409630436,4.2823224,75.34262050003694,Point_968,-5.72712819841172,Ratö
277.0,37.758457,0.0361351966352265,27.14642018036647,72.92093316707117,22.655075,13.931758966521196,Point_969,31.555966419643823,Phalodi
1234.0,38.693367,0.0476602045819047,24.4387547749998,91.72443096454792,23.21602,79.31538929713433,Point_970,26.791006024678552,Moulvibazar
633.0,46.81862,0.0495074399554439,22.32823004506272,83.19603730036296,28.091171,13.9803072257899,Point_971,33.88068701426192,Raigarh
367.0,74.767975,0.0377488745300967,26.9333672974724,70.98234799127738,44.860783,16.201563154777226,Point_972,32.16629085540774,Jaisalmer
701.0,34.03441,0.0373569959774599,10.34729173935906,77.92990432190119,20.420645,46.42528464427351,Point_973,32.772722604539695,Dindigul
313.0,26.495949,0.0423735228494407,28.11886683646282,94.46451572375724,15.89757,83.54966840285982,Point_974,17.56308718787301,Liromoba
549.0,23.527397,0.0357028913029777,22.22027629784587,79.34468080074546,14.116439,16.708843438940505,Point_976,31.02274973127578,Seoni
583.0,40.061752,0.0430099282252039,20.390714430159683,82.07269226530255,24.037052,19.582789893476647,Point_979,33.81315500471328,Dhamtari
327.0,36.97747,0.0396069129928924,28.46187729026017,72.63470704658945,22.186481,14.042957548646545,Point_985,32.132830026414695,Ganeshwala
696.0,26.864935,0.0237860651229602,28.125990888552707,85.95550900349735,16.118961,69.67609774757068,Point_986,-1.406137530008948,Nyalam
654.0,51.43363,0.0488901306940297,20.92384337993627,83.99389662920517,30.860178,26.75895478560445,Point_987,34.689104440477195,Mahada
388.0,21.973167,0.0341692753135926,19.00557040509397,94.55125009803884,13.183901,64.78155700757473,Point_989,27.40085574256051,Rakhine
1101.0,61.93652,0.0436255087056156,26.47985740622931,86.55179913973986,37.16191,22.536617682113423,Point_990,31.04150786929665,Laukahi
180.0,11.996894,0.0227742120623617,34.603459325718475,73.6128448926223,7.1981363,57.043897111814815,Point_991,5.308068741692466,Hazara Division
1137.0,49.288128,0.0491397417360904,25.88246601923287,87.46316395572813,29.572876,27.37552925054744,Point_992,30.57799332936605,Mathaur
145.0,2.755596,0.0144907483436807,30.750972896663235,88.44994271822857,1.6533575,27.054695956064062,Point_994,-3.0517267227172624,Khyak
708.0,81.593025,0.0430646422438618,27.77272423444541,78.20185680789272,48.955814,17.624772722167314,Point_996,30.79221316443551,Aligarh
676.0,14.301698,0.0342321256927647,36.9356623980385,68.22244325420972,8.581018,47.994065415017744,Point_997,21.95715728335915,Kunduz Province
523.0,47.79225,0.0387611632625432,29.748834853490266,73.47962945706672,28.675352,26.96708340067348,Point_998,28.726742786831323,15 FF
490.0,45.354534,0.037263549680216,18.407572916698854,73.2284188585482,27.21272,59.18761274761497,Point_1001,28.89144276512997,Kudali
672.0,49.23816,0.0386266603309682,12.830441262626188,77.88721548049432,29.542896,43.87669748224779,Point_1002,30.02392974429665,Hosur
544.0,29.657608,0.0421943733569588,23.90880940292698,93.78835043939576,17.794565,62.712577108295655,Point_1004,22.29895415835915,Lenikot
944.0,48.401035,0.0474799191891921,26.14271019321985,92.22047569064924,29.04062,58.02077463537382,Point_1006,26.751495933532738,Kumoi
314.0,6.600677,0.0150850390704074,34.013161715588495,95.39908293790307,3.9604063,61.71478796703532,Point_1009,-6.661169539557534,Tötsé
735.0,32.773655,0.0410726517439107,12.16120871336336,79.0423178337661,19.664192,42.203993693619296,Point_1010,34.34382177988692,Tiruvannamalai
525.0,35.21466,0.0420093263265755,24.918939666655096,80.39348499119578,21.128796,15.017330886246937,Point_1011,31.792023277282738,Sidhpur
583.0,41.90301,0.0447705820301849,20.875837553068774,82.52167563898574,25.141808,17.79791111383838,Point_1014,34.07842735714382,Gotma
508.0,57.869904,0.0386193064932919,30.692323995792965,72.16782411620402,34.721943,23.29484675695199,Point_1015,29.67240793440078,Khanewal District
542.0,25.380054,0.0349569987082253,22.106859371965847,77.83003909762463,15.228032,20.663968174729646,Point_1020,30.69165435367165,Betul
621.0,35.815697,0.0366770979016855,26.04201271230104,69.65995431510228,21.489418,19.57337723382996,Point_1022,32.67773833804665,Shaheed Benazirabad Division
332.0,29.510838,0.0348915240418736,23.421683158811263,72.15536908446136,17.706503,22.83246350343021,Point_1023,32.25542931026882,Ahmedabad
993.0,28.15869,0.0451930804407312,23.80826998553793,91.50239667574388,16.895214,80.7647162079547,Point_1024,27.712297799852195,Champaknagar
695.0,29.876432,0.043084596300055,17.111858846336688,80.62444231608991,17.92586,53.326861754304375,Point_1025,34.40411095089382,Tiruvuru
327.0,45.725166,0.0357840272674307,26.508094233845853,71.83968784359486,27.4351,15.243067516874971,Point_1026,32.03765587276882,Bhekhorai Jooni
199.0,2.699811,0.0180536380802129,32.068039189008005,88.73087309875172,1.6198865,33.71463976158849,Point_1027,0.685645781623009,Zhide
526.0,34.47837,0.0355682846395496,13.792880655861346,76.99790038230036,20.687021,32.61039596669764,Point_1028,32.40531809065078,Kenkera
239.0,1.9425688,0.0232575038409207,29.12151381450904,93.65157650713982,1.1655413,71.21032648067809,Point_1029,1.006934844123009,Mainling City
314.0,6.600677,0.0157370271581077,34.085876673420444,95.28748115304018,3.9604063,62.334718727826655,Point_1030,-5.336109860738077,Tötsé
237.0,34.461487,0.0442355871200551,27.96338579883606,73.78639421382398,20.676893,14.057719357621751,Point_1032,31.27722564273415,Sanwatsar
892.0,42.326843,0.0212859316337374,28.71750679700459,84.14362286242468,25.396105,72.99335688552372,Point_1033,-0.7690932591755768,Gandaki Province
459.0,29.761425,0.0381429623812479,23.12351367777272,77.36532970726499,17.856855,15.957625865653451,Point_1036,32.13083621131051,Bhopal
516.0,32.22462,0.0358009849474701,31.04182494474497,76.66520983269108,19.334772,27.61995669887526,Point_1037,26.73246652815078,Solan
315.0,2.8733315,0.0165693748387322,36.368691470320485,88.32742964589065,1.7239989,74.80235502652162,Point_1038,-12.357078827751993,Garco
701.0,36.378387,0.0517807186710601,20.066865784050048,85.34176498492826,21.827032,63.49217505415541,Point_1039,32.39831939273415,Ranpur
274.0,11.655764,0.020149257732267,35.76493278010577,74.3704522080251,6.9934583,72.93632358427622,Point_1041,-2.2908489015367195,Juglot Tehsil
568.0,49.68088,0.0414157227597041,29.222892670405813,71.78343116724079,29.808529,21.162408808955966,Point_1043,30.58725710974801,Bahawalpur Division
468.0,31.112085,0.0364568977369534,14.509668142763406,76.5388678805272,18.667252,39.30649840876858,Point_1044,31.27976199256051,Chitradurga
1077.0,56.950485,0.0459171493815742,27.41717527084136,83.64216029218929,34.17029,18.840711005307195,Point_1045,31.128842396206323,Mahrajganj
683.0,40.01893,0.0343538863443579,18.31194730600221,74.52158553169706,24.011356,22.304780449638947,Point_1046,31.862091636657738,Pune District
232.0,8.469491,0.0268671844361552,35.51608478772063,73.39517349664297,5.0816946,59.9447508877842,Point_1049,5.218143611484152,Hazara Division
415.0,61.381638,0.0368930514368763,30.271570740233585,75.79970103651269,36.828983,22.167810398563823,Point_1052,29.394765790303552,Andheri
346.0,13.948844,0.0220041442662478,27.62060788517488,91.94566587539468,8.369307,77.36813573753439,Point_1055,6.5978229734632805,Tawang
297.0,44.974728,0.0361669366965333,26.489274308939905,72.58179441963296,26.984837,14.217103093482386,Point_1056,31.58280832502578,Gopalsar
296.0,26.543097,0.0321353091870747,29.84392033680381,69.1624522176637,15.925858,19.353514166139544,Point_1057,24.373227161831323,Mawand
626.0,43.969776,0.0465003932526216,23.94471969713968,94.51118275968224,26.381866,56.35004408421811,Point_1060,27.938019371032738,Sagaing Region
333.0,4.0896645,0.0173825056602521,33.79312943691248,92.25880868544256,2.4537988,52.94002545977513,Point_1061,-2.7814630508422624,Yanshiping Town
675.0,60.710514,0.039903833375844,27.73422691366336,68.74553832923873,36.426308,21.044733664475785,Point_1063,31.767894045511923,Bagarji
156.0,4.445433,0.0220246363460058,29.230742956736982,88.37297649937922,2.66726,24.82140244705279,Point_1064,5.003652509053552,Gêding
484.0,38.6664,0.0467028112109777,26.587541441664456,96.7193215712618,23.19984,63.11647931331865,Point_1065,24.47177859412301,Kachin State
496.0,59.19522,0.0355225748881616,19.4651238205669,73.05570785387076,35.51713,51.9725983352707,Point_1066,30.377404679192463,Thane
558.0,21.136974,0.0209382586315666,30.157617371269545,79.89408340391977,12.682185,59.67071618832422,Point_1069,2.2423270967271947,Bageshwar
611.0,37.633602,0.0429252325154047,24.39802914273652,83.41835704555517,22.580162,15.918016863897003,Point_1070,32.485314835442466,Sonbhadra
602.0,39.44606,0.040349862263364,18.72550091950962,96.65673275434456,23.667637,52.80629527454175,Point_1072,30.12062299516469,Me Tin Tein
239.0,2.1836429,0.0213621667695663,29.02552647077598,93.37422989622812,1.3101858,68.50622977364229,Point_1074,0.5627481036716517,Mainling City
415.0,51.887787,0.039462358337893,30.20090842479488,75.0508332025739,31.132671,22.22843475803746,Point_1075,29.623525555928552,Tungwali
289.0,16.443714,0.023800192618037,33.034934389517545,69.20895338013243,9.866228,61.651372965897785,Point_1076,11.117218589782738,Paktika Province
588.0,35.759228,0.0364416452555639,26.20302744134657,78.09007723246873,21.455536,14.973870690664908,Point_1081,31.47563059065078,Gwalior
475.0,50.80867,0.0399719662964033,27.445299185071185,93.94120108677949,30.485203,87.89784944404614,Point_1082,17.890167808532738,Papum Pare
570.0,35.88475,0.0411964212692868,16.49177768983311,79.00449482599937,21.530851,35.53390951070964,Point_1086,34.72346045176192,Nalgonda
415.0,61.381638,0.0402022435553711,30.138957936067023,75.4700555971463,36.828983,21.307040987533032,Point_1088,29.630334366692463,Makha Chehlan
417.0,28.192034,0.0347021289269544,22.90966038549317,74.953831160395,16.91522,19.43773486832226,Point_1089,30.631378746032738,Bekalda
496.0,38.67179,0.0340791124684009,21.22200541216416,74.10760102856075,23.203074,28.44597254527751,Point_1090,30.81815988752578,Navapur Taluka
601.0,41.02222,0.0518793325233739,20.79264303438169,86.05523171172052,24.613333,58.0556959517543,Point_1091,32.974694718254966,Purunaboualmal
749.0,34.745327,0.0360805694576528,12.456740936324248,76.14755608905932,20.847197,56.02537791813086,Point_1092,27.74642323387997,Kelaginakoppalu
230.0,3.5901074,0.0231303138559684,29.340922494182045,91.61071897507598,2.1540644,50.52410558557574,Point_1093,5.361087947421652,Samye
612.0,42.416615,0.041513745673009,25.718046169363447,79.40811475051456,25.449968,13.782480396077354,Point_1095,32.45156917572024,Uttar Pradesh
373.0,13.168376,0.0180537993375388,35.56250760529338,96.7521202945556,7.901026,58.111385932525685,Point_1097,-2.8219768312242195,Qinghai
424.0,5.7619605,0.0207679833152453,35.23143762001946,68.57466437805101,3.4571762,80.12822037355404,Point_1098,-2.238317977057534,Baghlan Province
1043.0,51.784126,0.044760214903591,26.453027970943428,82.51652255935039,31.070475,18.17230748297516,Point_1100,31.87058230506051,Akbarpur
232.0,6.0037103,0.0194359738379712,35.81739364012143,73.1460530056582,3.6022263,78.71277109736565,Point_1102,-6.913502438863077,Hazara Division
414.0,56.22895,0.04079934230034,29.110571333466503,75.70610576205257,33.73737,17.723701920905263,Point_1105,30.67857926686605,Hisar
331.0,2.34074,0.0223216438900892,36.98127978460447,71.04471281244088,1.404444,54.331479127641856,Point_1107,4.935442331102195,Badakhshan Province
514.0,61.117985,0.0406855630378006,30.20832215287496,71.47558923568398,36.67079,21.573881083231097,Point_1110,30.301504071553552,Multan
701.0,33.190727,0.030600273981686,10.225247592726843,77.54462386047634,19.914436,53.90719620556425,Point_1111,25.84326568179665,Perumal Malai
183.0,9.59395,0.0185201494283804,35.38628636850338,72.41694563144438,5.75637,61.13110066095862,Point_1112,-0.5854859458075339,Kalam Tehsil
30.0,4.11188,0.017009043000002,31.93537277450397,79.29018810671828,2.4671278,45.56837452908313,Point_1115,-3.404197968376991,Tsamda County
93.0,7.0613084,0.0216921024118103,29.76896791781649,83.75281177141203,4.236785,34.30014791818263,Point_1117,-0.9827298694186766,Drongpa County
597.0,29.720821,0.0465059824287832,20.633669723487174,94.67559499043853,17.832493,45.119045146625375,Point_1121,33.12615684933132,Tha Yet Taw
199.0,2.9199908,0.0151281188575512,31.946362068294263,90.01672402994066,1.7519945,31.836195835616827,Point_1122,1.0169717364841515,Baingoin County
315.0,2.426434,0.0142844819929476,34.25518070350113,85.66695250558162,1.4558605,55.46219432995827,Point_1123,-9.772931692335304,Chabu
841.0,62.31205,0.0438446924892198,26.36849128803122,80.23293226752122,37.38723,15.581220736317968,Point_1124,31.99990901947024,Kanpur
270.0,3.289627,0.0177959169868713,32.350146510382416,91.53109547808874,1.9737762,50.02501208362256,Point_1125,-4.539031410217262,Cuoma
225.0,26.17468,0.0361170092281357,24.02465272299313,73.50449443153174,15.704808,19.79389298048691,Point_1127,30.71987972259524,Bhatki
762.0,39.553078,0.0390133725798575,29.723737920206844,78.58786749111547,23.731846,24.91188590319672,Point_1128,27.368357912699423,Kotdwar
263.0,8.042006,0.0156628363729567,35.74668843509504,91.83190246303433,4.8252034,66.30408892482271,Point_1129,-9.390770234001993,Zokya
713.0,44.364655,0.0462768513499112,21.846773381293488,85.40823111993703,26.618792,30.801912898357266,Point_1134,31.902049318949423,Kendujhar
544.0,29.657608,0.0418212493358401,23.83556153834286,93.74209699783832,17.794565,64.44028091398643,Point_1136,22.221005482143823,Mualpi
315.0,2.8655987,0.0142328272331317,34.64825763108071,85.30844659466649,1.7193593,62.85642639222492,Point_1137,-10.704843584696448,Chabu
264.0,15.855684,0.0319973079146654,34.19543889623219,70.4849045641312,9.513411,53.18370799494918,Point_1138,18.90109988318551,Qudrat Kalay
195.0,2.4444861,0.0170840586438708,32.88709667565723,90.51389810258289,1.4666917,49.121710724830486,Point_1139,-4.484533797370034,Gangnyi
260.0,22.503078,0.0300876712426511,33.68714700662484,74.17818000409996,13.501847,62.57968243234832,Point_1141,16.946279462178552,Poonch district
492.0,39.571655,0.0444293268965309,23.21546325419183,83.13113842010401,23.742992,14.952035665708207,Point_1143,31.090783585442463,Surajpur
816.0,26.503155,0.0405433975119831,16.748969403373174,81.91713083652105,15.901893,69.78069344119892,Point_1145,32.304216745164695,Kapileswarapuram
331.0,1.6492616,0.0160676793989844,36.49230411186723,71.68099629552495,0.98955697,73.17986287660658,Point_1147,-11.455467499626993,Wakhan District
733.0,24.34935,0.0310881230980092,28.8467244418262,82.64167645495209,14.609611,41.56082788353036,Point_1151,6.673804961310509,Lumbini Province
473.0,29.275986,0.0407658076266204,24.50963820175469,78.70503360639482,17.565592,15.12727509518896,Point_1152,31.43381472693551,Lalitpur
306.0,37.52577,0.0387052006835967,26.771797164070826,76.53065895827359,22.515461,15.452393428911993,Point_1153,30.472850100199423,Gangapur City
663.0,34.02823,0.0326035929458162,16.94673049734373,74.0519802104012,20.416937,43.984366019305945,Point_1154,28.82235096825497,Dholewadi
404.0,45.333908,0.0367900049313806,32.368653810043384,73.2651703018315,27.200346,35.60241374214111,Point_1157,26.79773345523415,Ghumnana
1094.0,56.630707,0.0460893024847522,26.271600364726325,83.32097502891983,33.978424,18.51465564327772,Point_1158,31.93465565575497,Azamgarh
597.0,26.373932,0.0454730900625467,20.573576190196697,94.1991808145051,15.824359,51.10405623032088,Point_1161,31.08374419742165,Magway
725.0,56.611538,0.0485227126628215,24.71474681937138,95.39137332182128,33.966923,46.69357230143915,Point_1163,28.505578507317463,Sagaing Region
819.0,51.32714,0.0490819304885715,22.500495972957367,86.06611770181614,30.796284,23.44828384673913,Point_1166,33.009240616692466,Tiring
223.0,6.3107395,0.0160432352332189,34.63107507251098,92.97039498211012,3.7864437,58.98190369407919,Point_1167,-5.962289873758948,Zokya
362.0,31.191956,0.0358044916036288,32.83459593836335,70.89735360667402,18.715174,44.08947774430884,Point_1169,24.61070817311605,Bannu Division
223.0,2.7431855,0.0180242178869964,36.6690174455902,73.05183047674555,1.6459113,79.52627751072343,Point_1170,-10.835838593376993,Mastuj Tehsil
1012.0,59.952877,0.0462103170498735,25.60182474250399,84.41628001435868,35.971725,21.78013722126974,Point_1172,31.549754397074423,Shahpur
123.0,2.9916573,0.0164362376090131,32.74070221700377,83.46630552390185,1.7949944,28.00831633074889,Point_1173,0.5625175264146947,Oma
472.0,29.912687,0.0364425326480181,23.176295561543213,76.39121160418189,17.947613,15.692837844017468,Point_1174,31.76162776947024,Ilaskheri
611.0,31.184334,0.0362966544926191,21.709876638880672,72.16048766315606,18.7106,41.794565023038096,Point_1176,31.720449384053552,Budhel
63.0,2.7207081,0.0140337739139713,31.204792872142697,88.67349142616378,1.6324248,32.042518529757565,Point_1180,-1.0274347305297624,Xainza
620.0,32.21158,0.0329321342774418,25.60872478949821,93.95337481127224,19.326946,77.47353981009991,Point_1181,16.196767743428552,Dzuleke
492.0,39.571655,0.045423015858377,23.51357521400724,83.1358968578317,23.742992,15.726519138408248,Point_1184,31.08598215315078,Surajpur
420.0,34.90988,0.0311199254546653,17.114249580502104,73.81334748676919,20.945929,52.16409358015128,Point_1187,27.862091636657738,Kolhapur District
366.0,8.485367,0.0209237969547152,34.10823460382849,68.20272791467451,5.0912204,62.789779580160754,Point_1188,4.445574167039695,Maidan Wardak Province
1079.0,43.715836,0.0470332642806692,23.995518943829943,90.09372270709837,26.229502,57.99245210385188,Point_1192,30.685008303324423,Dhamrai Subdistrict
474.0,75.7506,0.0403122610149463,28.39740473960803,76.67246293618115,45.450363,16.937481987090212,Point_1196,30.831967396206323,Jhajjar
315.0,6.1570373,0.0176497207333657,36.78878455468812,88.36365905409029,3.6942225,64.98147601766146,Point_1197,-9.79731862809922,Qimantag
701.0,31.566591,0.0495773106035117,20.08979183128703,85.71309916223215,18.939955,69.09446676575904,Point_1199,31.991906632317463,Puri
307.0,19.480608,0.0270807977878382,32.430706636535206,69.75415927494262,11.688365,48.88722543646518,Point_1202,16.585290421379966,Dera Ismail Khan Division
482.0,35.021664,0.0416373360462801,25.57508059659084,78.40117005701514,21.012999,14.209852509295017,Point_1203,31.62158599429665,Kalipahadi
554.0,45.571472,0.03737233396311,13.878474411490975,77.88914787232142,27.342882,26.7777322867594,Point_1205,33.27392974429665,Gundlapalli
452.0,37.9993,0.0429484103350166,15.222907203636453,78.60586940165342,22.79958,24.49941713485228,Point_1210,37.19457047780355,Ramapuram
229.0,32.566986,0.0401895667115571,26.43358667975889,74.13528224413218,19.540192,14.5791150639785,Point_1212,30.92807742224801,Jaitaran
167.0,12.007015,0.0180371015832782,36.78582914811729,92.003892980298,7.2042093,24.397851680671646,Point_1213,-0.7743287192450339,Urt Moron
67.0,7.1972895,0.0201306359857108,29.24364807837845,85.21914470476108,4.3183737,46.24396654912895,Point_1216,-0.3562785890367195,Kyirong County
547.0,27.950563,0.0441166072041673,17.105238988196042,96.29603211964056,16.770338,49.59076822694941,Point_1217,33.07321902381051,Intaing
598.0,32.236473,0.0360265257150316,13.568148022055194,75.02214981155944,19.341883,71.51513530939853,Point_1218,27.94151871999105,Udupi
209.0,3.127275,0.0136053716579638,32.255392708748616,85.01233913992334,1.8763651,25.471672735423347,Point_1220,-0.8121026992797624,Dongcuo
584.0,27.207817,0.0418889613036391,17.026912165390005,81.65551849391933,16.32469,63.14556355603674,Point_1222,33.09703629811605,Govardhanagirimetta
476.0,31.92904,0.0435791823595705,15.6524310741833,79.43400368531626,19.157425,42.008928344483024,Point_1226,35.46148399776882,Chavutapalle
475.0,25.347458,0.0491461791098455,27.66803125483745,93.44545672989447,15.208474,86.13495347445604,Point_1229,13.038035647074423,Kurung Kumey
424.0,28.131786,0.029552948573642,30.81412914914688,70.16387729716834,16.879072,27.828491512761367,Point_1231,23.90055734846328,Loralai Division
195.0,2.9714627,0.0174849542478795,32.11102351704077,90.3349158788382,1.7828776,33.8802084944469,Point_1232,-0.819589678446448,Baingoin County
